<?xml version="1.0" encoding="utf-8"?><kml><Folder><Placemark id="ac96b8"><name>AAL392  </name><description>United States</description><open>1</open><extrude>0</extrude><LookAt><longitude>-104.7501</longitude><latitude>37.4166</latitude><range>11826.24</range></LookAt><Point><coordinates>-104.7501,37.4166,11826.24</coordinates><altitudeMode>relativeToGround</altitudeMode></Point></Placemark><Placemark id="88044c"><name>AIQ438  </name><description>Thailand</description><open>1</open><extrude>0</extrude><LookAt><longitude>100.4248</longitude><latitude>13.7036</latitude><range>3116.58</range></LookAt><Point><coordinates>100.4248,13.7036,3116.58</coordinates><altitudeMode>relativeToGround</altitudeMode></Point></Placemark><Placemark id="7c6b2f"><name>JST989  </name><description>Australia</description><open>1</open><extrude>0</extrude><LookAt><longitude>118.4744</longitude><latitude>-32.3751</latitude><range>8602.98</range></LookAt><Point><coordinates>118.4744,-32.3751,8602.98</coordinates><altitudeMode>relativeToGround</altitudeMode></Point></Placemark><Placemark id="aa56da"><name>UAL1111 </name><description>United States</description><open>1</open><extrude>0</extrude><LookAt><longitude>-123.9313</longitude><latitude>37.3058</latitude><range>7970.52</range></LookAt><Point><coordinates>-123.9313,37.3058,7970.52</coordinates><altitudeMode>relativeToGround</altitudeMode></Point></Placemark><Placemark id="318d1a"><name/><description>Italy</description><open>1</open><extrude>0</extrude><LookAt><longitude>null</longitude><latitude>null</latitude><range>null</range></LookAt><Point><coordinates>null,null,null</coordinates><altitudeMode>relativeToGround</altitudeMode></Point></Placemark><Placemark id="abd9d9"><name>SWA2319 </name><description>United States</description><open>1</open><extrude>0</extrude><LookAt><longitude>-81.3953</longitude><latitude>30.4972</latitude><range>11605.26</range></LookAt><Point><coordinates>-81.3953,30.4972,11605.26</coordinates><altitudeMode>relativeToGround</altitudeMode></Point></Placemark><Placemark id="ade191"><name/><description>United States</description><open>1</open><extrude>0</extrude><LookAt><longitude>-95.8351</longitude><latitude>33.0576</latitude><range>5631.18</range></LookAt><Point><coordinates>-95.8351,33.0576,5631.18</coordinates><altitudeMode>relativeToGround</altitudeMode></Point></Placemark><Placemark id="880454"><name>AIQ3206 </name><description>Thailand</description><open>1</open><extrude>0</extrude><LookAt><longitude>100.6489</longitude><latitude>13.9913</latitude><range>457.2</range></LookAt><Point><coordinates>100.6489,13.9913,457.2</coordinates><altitudeMode>relativeToGround</altitudeMode></Point></Placemark><Placemark id="aaf633"><name>UAL784  </name><description>United States</description><open>1</open><extrude>0</extrude><LookAt><longitude>-121.9599</longitude><latitude>40.5802</latitude><range>11224.26</range></LookAt><Point><coordinates>-121.9599,40.5802,11224.26</coordinates><altitudeMode>relativeToGround</altitudeMode></Point></Placemark><Placemark id="a678e5"><name>N516N   </name><description>United States</description><open>1</open><extrude>0</extrude><LookAt><longitude>-70.7468</longitude><latitude>41.2916</latitude><range>693.42</range></LookAt><Point><coordinates>-70.7468,41.2916,693.42</coordinates><altitudeMode>relativeToGround</altitudeMode></Point></Placemark><Placemark id="4b1804"><name>SWR1337 </name><description>Switzerland</description><open>1</open><extrude>0</extrude><LookAt><longitude>6.049</longitude><latitude>46.0539</latitude><range>2270.76</range></LookAt><Point><coordinates>6.049,46.0539,2270.76</coordinates><altitudeMode>relativeToGround</altitudeMode></Point></Placemark><Placemark id="4b1807"><name>SWR89K  </name><description>Switzerland</description><open>1</open><extrude>0</extrude><LookAt><longitude>9.6207</longitude><latitude>50.9794</latitude><range>10439.4</range></LookAt><Point><coordinates>9.6207,50.9794,10439.4</coordinates><altitudeMode>relativeToGround</altitudeMode></Point></Placemark><Placemark id="a7b07c"><name>FDX463  </name><description>United States</description><open>1</open><extrude>0</extrude><LookAt><longitude>-93.5286</longitude><latitude>35.0025</latitude><range>11239.5</range></LookAt><Point><coordinates>-93.5286,35.0025,11239.5</coordinates><altitudeMode>relativeToGround</altitudeMode></Point></Placemark><Placemark id="aa8c1b"><name>SWA1387 </name><description>United States</description><open>1</open><extrude>0</extrude><LookAt><longitude>-81.2141</longitude><latitude>35.6835</latitude><range>12207.24</range></LookAt><Point><coordinates>-81.2141,35.6835,12207.24</coordinates><altitudeMode>relativeToGround</altitudeMode></Point></Placemark><Placemark id="a678ef"><name>NKS6347 </name><description>United States</description><open>1</open><extrude>0</extrude><LookAt><longitude>-87.0163</longitude><latitude>41.9932</latitude><range>9723.12</range></LookAt><Point><coordinates>-87.0163,41.9932,9723.12</coordinates><altitudeMode>relativeToGround</altitudeMode></Point></Placemark><Placemark id="4b1802"><name>SWR271X </name><description>Switzerland</description><open>1</open><extrude>0</extrude><LookAt><longitude>-5.4106</longitude><latitude>41.3871</latitude><range>9593.58</range></LookAt><Point><coordinates>-5.4106,41.3871,9593.58</coordinates><altitudeMode>relativeToGround</altitudeMode></Point></Placemark><Placemark id="acdfa6"><name>AAL1873 </name><description>United States</description><open>1</open><extrude>0</extrude><LookAt><longitude>-97.2146</longitude><latitude>33.7825</latitude><range>7139.94</range></LookAt><Point><coordinates>-97.2146,33.7825,7139.94</coordinates><altitudeMode>relativeToGround</altitudeMode></Point></Placemark><Placemark id="4044d1"><name>GURMS   </name><description>United Kingdom</description><open>1</open><extrude>0</extrude><LookAt><longitude>-1.5099</longitude><latitude>51.481</latitude><range>571.5</range></LookAt><Point><coordinates>-1.5099,51.481,571.5</coordinates><altitudeMode>relativeToGround</altitudeMode></Point></Placemark><Placemark id="aa69ee"><name>N770KF  </name><description>United States</description><open>1</open><extrude>0</extrude><LookAt><longitude>-109.4159</longitude><latitude>37.7169</latitude><range>13662.66</range></LookAt><Point><coordinates>-109.4159,37.7169,13662.66</coordinates><altitudeMode>relativeToGround</altitudeMode></Point></Placemark><Placemark id="399582"><name>FHFMC   </name><description>France</description><open>1</open><extrude>0</extrude><LookAt><longitude>-2.4304</longitude><latitude>47.0346</latitude><range>8923.02</range></LookAt><Point><coordinates>-2.4304,47.0346,8923.02</coordinates><altitudeMode>relativeToGround</altitudeMode></Point></Placemark><Placemark id="c822c4"><name>TFR23   </name><description>New Zealand</description><open>1</open><extrude>0</extrude><LookAt><longitude>153.1477</longitude><latitude>-28.4878</latitude><range>10347.96</range></LookAt><Point><coordinates>153.1477,-28.4878,10347.96</coordinates><altitudeMode>relativeToGround</altitudeMode></Point></Placemark><Placemark id="00b22b"><name>        </name><description>South Africa</description><open>1</open><extrude>0</extrude><LookAt><longitude>28.2557</longitude><latitude>-26.1401</latitude><range>null</range></LookAt><Point><coordinates>28.2557,-26.1401,null</coordinates><altitudeMode>relativeToGround</altitudeMode></Point></Placemark><Placemark id="00b22c"><name>SAA362  </name><description>South Africa</description><open>1</open><extrude>0</extrude><LookAt><longitude>18.5524</longitude><latitude>-33.831</latitude><range>2103.12</range></LookAt><Point><coordinates>18.5524,-33.831,2103.12</coordinates><altitudeMode>relativeToGround</altitudeMode></Point></Placemark><Placemark id="e17aae"><name>VFR     </name><description>Argentina</description><open>1</open><extrude>0</extrude><LookAt><longitude>-88.8397</longitude><latitude>41.8614</latitude><range>822.96</range></LookAt><Point><coordinates>-88.8397,41.8614,822.96</coordinates><altitudeMode>relativeToGround</altitudeMode></Point></Placemark><Placemark id="880445"><name>AIQ597  </name><description>Thailand</description><open>1</open><extrude>0</extrude><LookAt><longitude>113.811</longitude><latitude>22.4655</latitude><range>2209.8</range></LookAt><Point><coordinates>113.811,22.4655,2209.8</coordinates><altitudeMode>relativeToGround</altitudeMode></Point></Placemark><Placemark id="ace6b3"><name>ASH5994 </name><description>United States</description><open>1</open><extrude>0</extrude><LookAt><longitude>-98.164</longitude><latitude>30.826</latitude><range>10614.66</range></LookAt><Point><coordinates>-98.164,30.826,10614.66</coordinates><altitudeMode>relativeToGround</altitudeMode></Point></Placemark><Placemark id="aadc2b"><name>N79920  </name><description>United States</description><open>1</open><extrude>0</extrude><LookAt><longitude>-74.3115</longitude><latitude>40.5809</latitude><range>358.14</range></LookAt><Point><coordinates>-74.3115,40.5809,358.14</coordinates><altitudeMode>relativeToGround</altitudeMode></Point></Placemark><Placemark id="a41ee4"><name>N365AE  </name><description>United States</description><open>1</open><extrude>0</extrude><LookAt><longitude>-90.2053</longitude><latitude>38.6028</latitude><range>297.18</range></LookAt><Point><coordinates>-90.2053,38.6028,297.18</coordinates><altitudeMode>relativeToGround</altitudeMode></Point></Placemark><Placemark id="ac4970"><name>RVF8121 </name><description>United States</description><open>1</open><extrude>0</extrude><LookAt><longitude>-149.8926</longitude><latitude>61.2667</latitude><range>1607.82</range></LookAt><Point><coordinates>-149.8926,61.2667,1607.82</coordinates><altitudeMode>relativeToGround</altitudeMode></Point></Placemark><Placemark id="c01aa7"><name>ACA761  </name><description>Canada</description><open>1</open><extrude>0</extrude><LookAt><longitude>-105.3727</longitude><latitude>40.0382</latitude><range>10835.64</range></LookAt><Point><coordinates>-105.3727,40.0382,10835.64</coordinates><altitudeMode>relativeToGround</altitudeMode></Point></Placemark><Placemark id="318d02"><name/><description>Italy</description><open>1</open><extrude>0</extrude><LookAt><longitude>null</longitude><latitude>null</latitude><range>null</range></LookAt><Point><coordinates>null,null,null</coordinates><altitudeMode>relativeToGround</altitudeMode></Point></Placemark><Placemark id="a6fe45"><name>N55NG   </name><description>United States</description><open>1</open><extrude>0</extrude><LookAt><longitude>-75.6726</longitude><latitude>40.0627</latitude><range>9235.44</range></LookAt><Point><coordinates>-75.6726,40.0627,9235.44</coordinates><altitudeMode>relativeToGround</altitudeMode></Point></Placemark><Placemark id="aa56b5"><name>UAL2266 </name><description>United States</description><open>1</open><extrude>0</extrude><LookAt><longitude>-110.0301</longitude><latitude>32.4545</latitude><range>11521.44</range></LookAt><Point><coordinates>-110.0301,32.4545,11521.44</coordinates><altitudeMode>relativeToGround</altitudeMode></Point></Placemark><Placemark id="a41ed5"><name>N36491  </name><description>United States</description><open>1</open><extrude>0</extrude><LookAt><longitude>-86.6241</longitude><latitude>32.8202</latitude><range>1859.28</range></LookAt><Point><coordinates>-86.6241,32.8202,1859.28</coordinates><altitudeMode>relativeToGround</altitudeMode></Point></Placemark><Placemark id="ad5623"><name>AAL2502 </name><description>United States</description><open>1</open><extrude>0</extrude><LookAt><longitude>-93.8311</longitude><latitude>33.7885</latitude><range>11254.74</range></LookAt><Point><coordinates>-93.8311,33.7885,11254.74</coordinates><altitudeMode>relativeToGround</altitudeMode></Point></Placemark><Placemark id="aa56b4"><name>UAL1739 </name><description>United States</description><open>1</open><extrude>0</extrude><LookAt><longitude>-81.9972</longitude><latitude>34.6419</latitude><range>9974.58</range></LookAt><Point><coordinates>-81.9972,34.6419,9974.58</coordinates><altitudeMode>relativeToGround</altitudeMode></Point></Placemark><Placemark id="aa56b3"><name>UAL1663 </name><description>United States</description><open>1</open><extrude>0</extrude><LookAt><longitude>-78.8549</longitude><latitude>35.2081</latitude><range>11689.08</range></LookAt><Point><coordinates>-78.8549,35.2081,11689.08</coordinates><altitudeMode>relativeToGround</altitudeMode></Point></Placemark><Placemark id="4952c1"><name>TAP1253 </name><description>Portugal</description><open>1</open><extrude>0</extrude><LookAt><longitude>0.7985</longitude><latitude>41.1505</latitude><range>12443.46</range></LookAt><Point><coordinates>0.7985,41.1505,12443.46</coordinates><altitudeMode>relativeToGround</altitudeMode></Point></Placemark><Placemark id="ad5628"><name>DAL802  </name><description>United States</description><open>1</open><extrude>0</extrude><LookAt><longitude>-87.6928</longitude><latitude>37.0242</latitude><range>7452.36</range></LookAt><Point><coordinates>-87.6928,37.0242,7452.36</coordinates><altitudeMode>relativeToGround</altitudeMode></Point></Placemark><Placemark id="a1c5e0"><name>CPZ6057 </name><description>United States</description><open>1</open><extrude>0</extrude><LookAt><longitude>-115.0219</longitude><latitude>34.3082</latitude><range>10858.5</range></LookAt><Point><coordinates>-115.0219,34.3082,10858.5</coordinates><altitudeMode>relativeToGround</altitudeMode></Point></Placemark><Placemark id="4952c4"><name>TAP432M </name><description>Portugal</description><open>1</open><extrude>0</extrude><LookAt><longitude>1.5197</longitude><latitude>48.1681</latitude><range>4122.42</range></LookAt><Point><coordinates>1.5197,48.1681,4122.42</coordinates><altitudeMode>relativeToGround</altitudeMode></Point></Placemark><Placemark id="88045a"><name>AIQ528  </name><description>Thailand</description><open>1</open><extrude>0</extrude><LookAt><longitude>100.7868</longitude><latitude>14.9444</latitude><range>11414.76</range></LookAt><Point><coordinates>100.7868,14.9444,11414.76</coordinates><altitudeMode>relativeToGround</altitudeMode></Point></Placemark><Placemark id="47be91"><name>SAS63D  </name><description>Norway</description><open>1</open><extrude>0</extrude><LookAt><longitude>18.9967</longitude><latitude>51.222</latitude><range>11529.06</range></LookAt><Point><coordinates>18.9967,51.222,11529.06</coordinates><altitudeMode>relativeToGround</altitudeMode></Point></Placemark><Placemark id="ae1fae"><name>72159   </name><description>United States</description><open>1</open><extrude>0</extrude><LookAt><longitude>-88.1134</longitude><latitude>43.7676</latitude><range>1386.84</range></LookAt><Point><coordinates>-88.1134,43.7676,1386.84</coordinates><altitudeMode>relativeToGround</altitudeMode></Point></Placemark><Placemark id="a1025a"><name>UPS2939 </name><description>United States</description><open>1</open><extrude>0</extrude><LookAt><longitude>-89.3529</longitude><latitude>35.6031</latitude><range>11871.96</range></LookAt><Point><coordinates>-89.3529,35.6031,11871.96</coordinates><altitudeMode>relativeToGround</altitudeMode></Point></Placemark><Placemark id="ab63d7"><name>DAL1769 </name><description>United States</description><open>1</open><extrude>0</extrude><LookAt><longitude>-87.1061</longitude><latitude>36.8142</latitude><range>11186.16</range></LookAt><Point><coordinates>-87.1061,36.8142,11186.16</coordinates><altitudeMode>relativeToGround</altitudeMode></Point></Placemark><Placemark id="c822e9"><name>APK78   </name><description>New Zealand</description><open>1</open><extrude>0</extrude><LookAt><longitude>173.7448</longitude><latitude>-41.0819</latitude><range>10172.7</range></LookAt><Point><coordinates>173.7448,-41.0819,10172.7</coordinates><altitudeMode>relativeToGround</altitudeMode></Point></Placemark><Placemark id="a46e35"><name>DAL1835 </name><description>United States</description><open>1</open><extrude>0</extrude><LookAt><longitude>-81.605</longitude><latitude>32.4301</latitude><range>10645.14</range></LookAt><Point><coordinates>-81.605,32.4301,10645.14</coordinates><altitudeMode>relativeToGround</altitudeMode></Point></Placemark><Placemark id="4b180a"><name>SWR407  </name><description>Switzerland</description><open>1</open><extrude>0</extrude><LookAt><longitude>8.5599</longitude><latitude>47.4516</latitude><range>null</range></LookAt><Point><coordinates>8.5599,47.4516,null</coordinates><altitudeMode>relativeToGround</altitudeMode></Point></Placemark><Placemark id="4b180b"><name>SWR179B </name><description>Switzerland</description><open>1</open><extrude>0</extrude><LookAt><longitude>11.4804</longitude><latitude>48.1721</latitude><range>5394.96</range></LookAt><Point><coordinates>11.4804,48.1721,5394.96</coordinates><altitudeMode>relativeToGround</altitudeMode></Point></Placemark><Placemark id="4b1858"><name>HBJFS   </name><description>Switzerland</description><open>1</open><extrude>0</extrude><LookAt><longitude>5.2761</longitude><latitude>50.1343</latitude><range>10424.16</range></LookAt><Point><coordinates>5.2761,50.1343,10424.16</coordinates><altitudeMode>relativeToGround</altitudeMode></Point></Placemark><Placemark id="44028d"><name>EWG2JW  </name><description>Austria</description><open>1</open><extrude>0</extrude><LookAt><longitude>13.8283</longitude><latitude>50.9587</latitude><range>11894.82</range></LookAt><Point><coordinates>13.8283,50.9587,11894.82</coordinates><altitudeMode>relativeToGround</altitudeMode></Point></Placemark><Placemark id="3c6668"><name>DLH1307 </name><description>Germany</description><open>1</open><extrude>0</extrude><LookAt><longitude>19.486</longitude><latitude>45.2235</latitude><range>11391.9</range></LookAt><Point><coordinates>19.486,45.2235,11391.9</coordinates><altitudeMode>relativeToGround</altitudeMode></Point></Placemark><Placemark id="44028c"><name>EJU97XP </name><description>Austria</description><open>1</open><extrude>0</extrude><LookAt><longitude>-0.2642</longitude><latitude>45.442</latitude><range>12047.22</range></LookAt><Point><coordinates>-0.2642,45.442,12047.22</coordinates><altitudeMode>relativeToGround</altitudeMode></Point></Placemark><Placemark id="ac498c"><name>FDX3    </name><description>United States</description><open>1</open><extrude>0</extrude><LookAt><longitude>9.1745</longitude><latitude>49.8956</latitude><range>3771.9</range></LookAt><Point><coordinates>9.1745,49.8956,3771.9</coordinates><altitudeMode>relativeToGround</altitudeMode></Point></Placemark><Placemark id="3c6666"><name>DLH1KE  </name><description>Germany</description><open>1</open><extrude>0</extrude><LookAt><longitude>12.3335</longitude><latitude>57.7214</latitude><range>457.2</range></LookAt><Point><coordinates>12.3335,57.7214,457.2</coordinates><altitudeMode>relativeToGround</altitudeMode></Point></Placemark><Placemark id="adeca5"><name>AAL2489 </name><description>United States</description><open>1</open><extrude>0</extrude><LookAt><longitude>-84.7364</longitude><latitude>30.7149</latitude><range>10355.58</range></LookAt><Point><coordinates>-84.7364,30.7149,10355.58</coordinates><altitudeMode>relativeToGround</altitudeMode></Point></Placemark><Placemark id="a2228b"><name>ASA904  </name><description>United States</description><open>1</open><extrude>0</extrude><LookAt><longitude>-150.0184</longitude><latitude>61.1679</latitude><range>null</range></LookAt><Point><coordinates>-150.0184,61.1679,null</coordinates><altitudeMode>relativeToGround</altitudeMode></Point></Placemark><Placemark id="aa9f1c"><name>SWA32   </name><description>United States</description><open>1</open><extrude>0</extrude><LookAt><longitude>-88.6526</longitude><latitude>36.9201</latitude><range>12138.66</range></LookAt><Point><coordinates>-88.6526,36.9201,12138.66</coordinates><altitudeMode>relativeToGround</altitudeMode></Point></Placemark><Placemark id="ad5658"><name>N959CR  </name><description>United States</description><open>1</open><extrude>0</extrude><LookAt><longitude>-122.3777</longitude><latitude>37.9654</latitude><range>5128.26</range></LookAt><Point><coordinates>-122.3777,37.9654,5128.26</coordinates><altitudeMode>relativeToGround</altitudeMode></Point></Placemark><Placemark id="acdff1"><name/><description>United States</description><open>1</open><extrude>0</extrude><LookAt><longitude>-74.1918</longitude><latitude>40.6417</latitude><range>784.86</range></LookAt><Point><coordinates>-74.1918,40.6417,784.86</coordinates><altitudeMode>relativeToGround</altitudeMode></Point></Placemark><Placemark id="e4943b"><name>PRCGF   </name><description>Brazil</description><open>1</open><extrude>0</extrude><LookAt><longitude>-39.8843</longitude><latitude>-21.9983</latitude><range>289.56</range></LookAt><Point><coordinates>-39.8843,-21.9983,289.56</coordinates><altitudeMode>relativeToGround</altitudeMode></Point></Placemark><Placemark id="4845eb"><name>TFL700  </name><description>Kingdom of the Netherlands</description><open>1</open><extrude>0</extrude><LookAt><longitude>-11.163</longitude><latitude>42.9751</latitude><range>11887.2</range></LookAt><Point><coordinates>-11.163,42.9751,11887.2</coordinates><altitudeMode>relativeToGround</altitudeMode></Point></Placemark><Placemark id="ad4f72"><name>JBU865  </name><description>United States</description><open>1</open><extrude>0</extrude><LookAt><longitude>-81.5588</longitude><latitude>27.3361</latitude><range>5120.64</range></LookAt><Point><coordinates>-81.5588,27.3361,5120.64</coordinates><altitudeMode>relativeToGround</altitudeMode></Point></Placemark><Placemark id="a3feae"><name/><description>United States</description><open>1</open><extrude>0</extrude><LookAt><longitude>-77.0599</longitude><latitude>38.0037</latitude><range>1386.84</range></LookAt><Point><coordinates>-77.0599,38.0037,1386.84</coordinates><altitudeMode>relativeToGround</altitudeMode></Point></Placemark><Placemark id="a678a5"><name>N516KL  </name><description>United States</description><open>1</open><extrude>0</extrude><LookAt><longitude>-111.8931</longitude><latitude>40.893</latitude><range>1584.96</range></LookAt><Point><coordinates>-111.8931,40.893,1584.96</coordinates><altitudeMode>relativeToGround</altitudeMode></Point></Placemark><Placemark id="a9036d"><name>N680CD  </name><description>United States</description><open>1</open><extrude>0</extrude><LookAt><longitude>-88.8288</longitude><latitude>42.1802</latitude><range>838.2</range></LookAt><Point><coordinates>-88.8288,42.1802,838.2</coordinates><altitudeMode>relativeToGround</altitudeMode></Point></Placemark><Placemark id="ac83c0"><name/><description>United States</description><open>1</open><extrude>0</extrude><LookAt><longitude>-111.3659</longitude><latitude>32.6753</latitude><range>11879.58</range></LookAt><Point><coordinates>-111.3659,32.6753,11879.58</coordinates><altitudeMode>relativeToGround</altitudeMode></Point></Placemark><Placemark id="e49443"><name>AZU9018 </name><description>Brazil</description><open>1</open><extrude>0</extrude><LookAt><longitude>-46.1351</longitude><latitude>-22.6313</latitude><range>9204.96</range></LookAt><Point><coordinates>-46.1351,-22.6313,9204.96</coordinates><altitudeMode>relativeToGround</altitudeMode></Point></Placemark><Placemark id="3c6664"><name>DLH26E  </name><description>Germany</description><open>1</open><extrude>0</extrude><LookAt><longitude>7.2791</longitude><latitude>50.0924</latitude><range>4701.54</range></LookAt><Point><coordinates>7.2791,50.0924,4701.54</coordinates><altitudeMode>relativeToGround</altitudeMode></Point></Placemark><Placemark id="a9b3df"><name>N724R   </name><description>United States</description><open>1</open><extrude>0</extrude><LookAt><longitude>-87.2095</longitude><latitude>38.7643</latitude><range>2186.94</range></LookAt><Point><coordinates>-87.2095,38.7643,2186.94</coordinates><altitudeMode>relativeToGround</altitudeMode></Point></Placemark><Placemark id="ab0361"><name>AAL2041 </name><description>United States</description><open>1</open><extrude>0</extrude><LookAt><longitude>-84.9232</longitude><latitude>38.9956</latitude><range>11841.48</range></LookAt><Point><coordinates>-84.9232,38.9956,11841.48</coordinates><altitudeMode>relativeToGround</altitudeMode></Point></Placemark><Placemark id="3c6662"><name>DLH956  </name><description>Germany</description><open>1</open><extrude>0</extrude><LookAt><longitude>-1.5877</longitude><latitude>52.3098</latitude><range>1120.14</range></LookAt><Point><coordinates>-1.5877,52.3098,1120.14</coordinates><altitudeMode>relativeToGround</altitudeMode></Point></Placemark><Placemark id="7101ef"><name>HZXY7   </name><description>Saudi Arabia</description><open>1</open><extrude>0</extrude><LookAt><longitude>22.5948</longitude><latitude>37.0581</latitude><range>10850.88</range></LookAt><Point><coordinates>22.5948,37.0581,10850.88</coordinates><altitudeMode>relativeToGround</altitudeMode></Point></Placemark><Placemark id="a7bc8e"><name>EJA598  </name><description>United States</description><open>1</open><extrude>0</extrude><LookAt><longitude>-70.3166</longitude><latitude>41.6431</latitude><range>205.74</range></LookAt><Point><coordinates>-70.3166,41.6431,205.74</coordinates><altitudeMode>relativeToGround</altitudeMode></Point></Placemark><Placemark id="3c6678"><name>DLH2PJ  </name><description>Germany</description><open>1</open><extrude>0</extrude><LookAt><longitude>9.3111</longitude><latitude>51.2782</latitude><range>5974.08</range></LookAt><Point><coordinates>9.3111,51.2782,5974.08</coordinates><altitudeMode>relativeToGround</altitudeMode></Point></Placemark><Placemark id="3c6677"><name>DLH1289 </name><description>Germany</description><open>1</open><extrude>0</extrude><LookAt><longitude>16.7553</longitude><latitude>42.0224</latitude><range>12077.7</range></LookAt><Point><coordinates>16.7553,42.0224,12077.7</coordinates><altitudeMode>relativeToGround</altitudeMode></Point></Placemark><Placemark id="ac1c67"><name>N88KK   </name><description>United States</description><open>1</open><extrude>0</extrude><LookAt><longitude>-89.7399</longitude><latitude>44.0917</latitude><range>2186.94</range></LookAt><Point><coordinates>-89.7399,44.0917,2186.94</coordinates><altitudeMode>relativeToGround</altitudeMode></Point></Placemark><Placemark id="a2d2eb"><name>ENY3701 </name><description>United States</description><open>1</open><extrude>0</extrude><LookAt><longitude>-98.1973</longitude><latitude>30.0057</latitude><range>10279.38</range></LookAt><Point><coordinates>-98.1973,30.0057,10279.38</coordinates><altitudeMode>relativeToGround</altitudeMode></Point></Placemark><Placemark id="3c666e"><name>DLH88P  </name><description>Germany</description><open>1</open><extrude>0</extrude><LookAt><longitude>5.6937</longitude><latitude>49.7814</latitude><range>9646.92</range></LookAt><Point><coordinates>5.6937,49.7814,9646.92</coordinates><altitudeMode>relativeToGround</altitudeMode></Point></Placemark><Placemark id="3c666c"><name>DLH687  </name><description>Germany</description><open>1</open><extrude>0</extrude><LookAt><longitude>26.4505</longitude><latitude>38.8179</latitude><range>10180.32</range></LookAt><Point><coordinates>26.4505,38.8179,10180.32</coordinates><altitudeMode>relativeToGround</altitudeMode></Point></Placemark><Placemark id="a678ab"><name>N516KS  </name><description>United States</description><open>1</open><extrude>0</extrude><LookAt><longitude>-90.4367</longitude><latitude>38.346</latitude><range>1577.34</range></LookAt><Point><coordinates>-90.4367,38.346,1577.34</coordinates><altitudeMode>relativeToGround</altitudeMode></Point></Placemark><Placemark id="aaf67e"><name>N805XA  </name><description>United States</description><open>1</open><extrude>0</extrude><LookAt><longitude>49.7969</longitude><latitude>26.503</latitude><range>556.26</range></LookAt><Point><coordinates>49.7969,26.503,556.26</coordinates><altitudeMode>relativeToGround</altitudeMode></Point></Placemark><Placemark id="440291"><name>EJU65ER </name><description>Austria</description><open>1</open><extrude>0</extrude><LookAt><longitude>8.6636</longitude><latitude>47.1877</latitude><range>11681.46</range></LookAt><Point><coordinates>8.6636,47.1877,11681.46</coordinates><altitudeMode>relativeToGround</altitudeMode></Point></Placemark><Placemark id="abf002"><name>EDV5096 </name><description>United States</description><open>1</open><extrude>0</extrude><LookAt><longitude>-86.1641</longitude><latitude>32.382</latitude><range>7726.68</range></LookAt><Point><coordinates>-86.1641,32.382,7726.68</coordinates><altitudeMode>relativeToGround</altitudeMode></Point></Placemark><Placemark id="3c6671"><name/><description>Germany</description><open>1</open><extrude>0</extrude><LookAt><longitude>19.5421</longitude><latitude>41.9297</latitude><range>10797.54</range></LookAt><Point><coordinates>19.5421,41.9297,10797.54</coordinates><altitudeMode>relativeToGround</altitudeMode></Point></Placemark><Placemark id="abb3c3"><name>N853PA  </name><description>United States</description><open>1</open><extrude>0</extrude><LookAt><longitude>-81.6759</longitude><latitude>28.4888</latitude><range>777.24</range></LookAt><Point><coordinates>-81.6759,28.4888,777.24</coordinates><altitudeMode>relativeToGround</altitudeMode></Point></Placemark><Placemark id="a58e1e"><name>SWA2514 </name><description>United States</description><open>1</open><extrude>0</extrude><LookAt><longitude>-100.5301</longitude><latitude>33.7588</latitude><range>12793.98</range></LookAt><Point><coordinates>-100.5301,33.7588,12793.98</coordinates><altitudeMode>relativeToGround</altitudeMode></Point></Placemark><Placemark id="505f24"><name>OMDYD   </name><description>Slovakia</description><open>1</open><extrude>0</extrude><LookAt><longitude>18.6587</longitude><latitude>48.8531</latitude><range>2369.82</range></LookAt><Point><coordinates>18.6587,48.8531,2369.82</coordinates><altitudeMode>relativeToGround</altitudeMode></Point></Placemark><Placemark id="3442cb"><name>ANE23PR </name><description>Spain</description><open>1</open><extrude>0</extrude><LookAt><longitude>-1.9986</longitude><latitude>42.2098</latitude><range>5715</range></LookAt><Point><coordinates>-1.9986,42.2098,5715</coordinates><altitudeMode>relativeToGround</altitudeMode></Point></Placemark><Placemark id="471efa"><name>WZZ1184 </name><description>Hungary</description><open>1</open><extrude>0</extrude><LookAt><longitude>15.0879</longitude><latitude>47.2583</latitude><range>11414.76</range></LookAt><Point><coordinates>15.0879,47.2583,11414.76</coordinates><altitudeMode>relativeToGround</altitudeMode></Point></Placemark><Placemark id="471efb"><name>WZZ9SZ  </name><description>Hungary</description><open>1</open><extrude>0</extrude><LookAt><longitude>17.4805</longitude><latitude>48.5237</latitude><range>9784.08</range></LookAt><Point><coordinates>17.4805,48.5237,9784.08</coordinates><altitudeMode>relativeToGround</altitudeMode></Point></Placemark><Placemark id="3c667a"><name>DLH1163 </name><description>Germany</description><open>1</open><extrude>0</extrude><LookAt><longitude>5.4981</longitude><latitude>49.7668</latitude><range>10050.78</range></LookAt><Point><coordinates>5.4981,49.7668,10050.78</coordinates><altitudeMode>relativeToGround</altitudeMode></Point></Placemark><Placemark id="acdffc"><name>DAL384  </name><description>United States</description><open>1</open><extrude>0</extrude><LookAt><longitude>-91.7222</longitude><latitude>38.1448</latitude><range>11193.78</range></LookAt><Point><coordinates>-91.7222,38.1448,11193.78</coordinates><altitudeMode>relativeToGround</altitudeMode></Point></Placemark><Placemark id="a3a538"><name>FFT126  </name><description>United States</description><open>1</open><extrude>0</extrude><LookAt><longitude>-77.3366</longitude><latitude>43.5374</latitude><range>10546.08</range></LookAt><Point><coordinates>-77.3366,43.5374,10546.08</coordinates><altitudeMode>relativeToGround</altitudeMode></Point></Placemark><Placemark id="471efe"><name>WZZ100C </name><description>Hungary</description><open>1</open><extrude>0</extrude><LookAt><longitude>16.6047</longitude><latitude>48.057</latitude><range>426.72</range></LookAt><Point><coordinates>16.6047,48.057,426.72</coordinates><altitudeMode>relativeToGround</altitudeMode></Point></Placemark><Placemark id="471efc"><name>WZZ9YW  </name><description>Hungary</description><open>1</open><extrude>0</extrude><LookAt><longitude>20.9636</longitude><latitude>52.1744</latitude><range>null</range></LookAt><Point><coordinates>20.9636,52.1744,null</coordinates><altitudeMode>relativeToGround</altitudeMode></Point></Placemark><Placemark id="471efd"><name>WZZ2327 </name><description>Hungary</description><open>1</open><extrude>0</extrude><LookAt><longitude>32.4963</longitude><latitude>34.3195</latitude><range>11384.28</range></LookAt><Point><coordinates>32.4963,34.3195,11384.28</coordinates><altitudeMode>relativeToGround</altitudeMode></Point></Placemark><Placemark id="a85807"><name>CPZ5784 </name><description>United States</description><open>1</open><extrude>0</extrude><LookAt><longitude>-122.2095</longitude><latitude>46.951</latitude><range>4937.76</range></LookAt><Point><coordinates>-122.2095,46.951,4937.76</coordinates><altitudeMode>relativeToGround</altitudeMode></Point></Placemark><Placemark id="4b1870"><name>HBJGQ   </name><description>Switzerland</description><open>1</open><extrude>0</extrude><LookAt><longitude>6.6562</longitude><latitude>45.2224</latitude><range>9928.86</range></LookAt><Point><coordinates>6.6562,45.2224,9928.86</coordinates><altitudeMode>relativeToGround</altitudeMode></Point></Placemark><Placemark id="a9038b"><name>N680DJ  </name><description>United States</description><open>1</open><extrude>0</extrude><LookAt><longitude>-80.1881</longitude><latitude>35.3086</latitude><range>9311.64</range></LookAt><Point><coordinates>-80.1881,35.3086,9311.64</coordinates><altitudeMode>relativeToGround</altitudeMode></Point></Placemark><Placemark id="48cb00"><name>SPTVA   </name><description>Poland</description><open>1</open><extrude>0</extrude><LookAt><longitude>21.5591</longitude><latitude>52.6473</latitude><range>495.3</range></LookAt><Point><coordinates>21.5591,52.6473,495.3</coordinates><altitudeMode>relativeToGround</altitudeMode></Point></Placemark><Placemark id="44029f"><name>AUA35G  </name><description>Austria</description><open>1</open><extrude>0</extrude><LookAt><longitude>16.5736</longitude><latitude>48.1136</latitude><range>null</range></LookAt><Point><coordinates>16.5736,48.1136,null</coordinates><altitudeMode>relativeToGround</altitudeMode></Point></Placemark><Placemark id="a678cf"><name>TFF909  </name><description>United States</description><open>1</open><extrude>0</extrude><LookAt><longitude>-94.7088</longitude><latitude>39.2888</latitude><range>13655.04</range></LookAt><Point><coordinates>-94.7088,39.2888,13655.04</coordinates><altitudeMode>relativeToGround</altitudeMode></Point></Placemark><Placemark id="e8026a"><name>LPE2251 </name><description>Chile</description><open>1</open><extrude>0</extrude><LookAt><longitude>-76.5904</longitude><latitude>-7.1964</latitude><range>6103.62</range></LookAt><Point><coordinates>-76.5904,-7.1964,6103.62</coordinates><altitudeMode>relativeToGround</altitudeMode></Point></Placemark><Placemark id="00b224"><name>        </name><description>South Africa</description><open>1</open><extrude>0</extrude><LookAt><longitude>28.2554</longitude><latitude>-26.1411</latitude><range>null</range></LookAt><Point><coordinates>28.2554,-26.1411,null</coordinates><altitudeMode>relativeToGround</altitudeMode></Point></Placemark><Placemark id="a34e97"><name>DAL1545 </name><description>United States</description><open>1</open><extrude>0</extrude><LookAt><longitude>-112.6213</longitude><latitude>35.7634</latitude><range>8915.4</range></LookAt><Point><coordinates>-112.6213,35.7634,8915.4</coordinates><altitudeMode>relativeToGround</altitudeMode></Point></Placemark><Placemark id="00b229"><name>SAA357  </name><description>South Africa</description><open>1</open><extrude>0</extrude><LookAt><longitude>20.5392</longitude><latitude>-32.3977</latitude><range>10797.54</range></LookAt><Point><coordinates>20.5392,-32.3977,10797.54</coordinates><altitudeMode>relativeToGround</altitudeMode></Point></Placemark><Placemark id="abf025"><name>SWA2393 </name><description>United States</description><open>1</open><extrude>0</extrude><LookAt><longitude>-117.1792</longitude><latitude>32.731</latitude><range>-7.62</range></LookAt><Point><coordinates>-117.1792,32.731,-7.62</coordinates><altitudeMode>relativeToGround</altitudeMode></Point></Placemark><Placemark id="a39bf0"><name>N3310T  </name><description>United States</description><open>1</open><extrude>0</extrude><LookAt><longitude>-73.9274</longitude><latitude>40.8946</latitude><range>243.84</range></LookAt><Point><coordinates>-73.9274,40.8946,243.84</coordinates><altitudeMode>relativeToGround</altitudeMode></Point></Placemark><Placemark id="4b184a"><name>HBJFE   </name><description>Switzerland</description><open>1</open><extrude>0</extrude><LookAt><longitude>6.1071</longitude><latitude>46.2354</latitude><range>null</range></LookAt><Point><coordinates>6.1071,46.2354,null</coordinates><altitudeMode>relativeToGround</altitudeMode></Point></Placemark><Placemark id="a9c6ff"><name>N729WR  </name><description>United States</description><open>1</open><extrude>0</extrude><LookAt><longitude>-116.8109</longitude><latitude>43.9757</latitude><range>7780.02</range></LookAt><Point><coordinates>-116.8109,43.9757,7780.02</coordinates><altitudeMode>relativeToGround</altitudeMode></Point></Placemark><Placemark id="e49437"><name>AZU6006 </name><description>Brazil</description><open>1</open><extrude>0</extrude><LookAt><longitude>-47.3806</longitude><latitude>-23.0308</latitude><range>3436.62</range></LookAt><Point><coordinates>-47.3806,-23.0308,3436.62</coordinates><altitudeMode>relativeToGround</altitudeMode></Point></Placemark><Placemark id="c01b6c"><name>JZA839  </name><description>Canada</description><open>1</open><extrude>0</extrude><LookAt><longitude>-122.2324</longitude><latitude>43.6315</latitude><range>11209.02</range></LookAt><Point><coordinates>-122.2324,43.6315,11209.02</coordinates><altitudeMode>relativeToGround</altitudeMode></Point></Placemark><Placemark id="ac21e4"><name/><description>United States</description><open>1</open><extrude>0</extrude><LookAt><longitude>null</longitude><latitude>null</latitude><range>null</range></LookAt><Point><coordinates>null,null,null</coordinates><altitudeMode>relativeToGround</altitudeMode></Point></Placemark><Placemark id="adda1e"><name>AAL2504 </name><description>United States</description><open>1</open><extrude>0</extrude><LookAt><longitude>-102.406</longitude><latitude>36.489</latitude><range>12481.56</range></LookAt><Point><coordinates>-102.406,36.489,12481.56</coordinates><altitudeMode>relativeToGround</altitudeMode></Point></Placemark><Placemark id="3455da"><name>VOE3WW  </name><description>Spain</description><open>1</open><extrude>0</extrude><LookAt><longitude>-0.0366</longitude><latitude>42.0738</latitude><range>11376.66</range></LookAt><Point><coordinates>-0.0366,42.0738,11376.66</coordinates><altitudeMode>relativeToGround</altitudeMode></Point></Placemark><Placemark id="c02262"><name>ACA1036 </name><description>Canada</description><open>1</open><extrude>0</extrude><LookAt><longitude>-86.2356</longitude><latitude>43.0341</latitude><range>12466.32</range></LookAt><Point><coordinates>-86.2356,43.0341,12466.32</coordinates><altitudeMode>relativeToGround</altitudeMode></Point></Placemark><Placemark id="0c4144"><name>HI955   </name><description>Dominican Republic</description><open>1</open><extrude>0</extrude><LookAt><longitude>-109.0399</longitude><latitude>35.4844</latitude><range>13053.06</range></LookAt><Point><coordinates>-109.0399,35.4844,13053.06</coordinates><altitudeMode>relativeToGround</altitudeMode></Point></Placemark><Placemark id="4b188b"><name>EDW2M   </name><description>Switzerland</description><open>1</open><extrude>0</extrude><LookAt><longitude>3.0768</longitude><latitude>49.5825</latitude><range>10744.2</range></LookAt><Point><coordinates>3.0768,49.5825,10744.2</coordinates><altitudeMode>relativeToGround</altitudeMode></Point></Placemark><Placemark id="aae1e9"><name>N800AM  </name><description>United States</description><open>1</open><extrude>0</extrude><LookAt><longitude>-84.9753</longitude><latitude>41.9718</latitude><range>13053.06</range></LookAt><Point><coordinates>-84.9753,41.9718,13053.06</coordinates><altitudeMode>relativeToGround</altitudeMode></Point></Placemark><Placemark id="ae1450"><name>RCH372  </name><description>United States</description><open>1</open><extrude>0</extrude><LookAt><longitude>-117.7316</longitude><latitude>37.9658</latitude><range>10355.58</range></LookAt><Point><coordinates>-117.7316,37.9658,10355.58</coordinates><altitudeMode>relativeToGround</altitudeMode></Point></Placemark><Placemark id="a4b294"><name>RPA4517 </name><description>United States</description><open>1</open><extrude>0</extrude><LookAt><longitude>-79.1876</longitude><latitude>27.8451</latitude><range>11003.28</range></LookAt><Point><coordinates>-79.1876,27.8451,11003.28</coordinates><altitudeMode>relativeToGround</altitudeMode></Point></Placemark><Placemark id="a28402"><name>N261PJ  </name><description>United States</description><open>1</open><extrude>0</extrude><LookAt><longitude>-73.7943</longitude><latitude>40.9176</latitude><range>411.48</range></LookAt><Point><coordinates>-73.7943,40.9176,411.48</coordinates><altitudeMode>relativeToGround</altitudeMode></Point></Placemark><Placemark id="3c65a3"><name>DLH729  </name><description>Germany</description><open>1</open><extrude>0</extrude><LookAt><longitude>8.5751</longitude><latitude>50.0398</latitude><range>null</range></LookAt><Point><coordinates>8.5751,50.0398,null</coordinates><altitudeMode>relativeToGround</altitudeMode></Point></Placemark><Placemark id="440261"><name>OEFDI   </name><description>Austria</description><open>1</open><extrude>0</extrude><LookAt><longitude>15.1789</longitude><latitude>48.8254</latitude><range>2750.82</range></LookAt><Point><coordinates>15.1789,48.8254,2750.82</coordinates><altitudeMode>relativeToGround</altitudeMode></Point></Placemark><Placemark id="a94b4d"><name>UAL2116 </name><description>United States</description><open>1</open><extrude>0</extrude><LookAt><longitude>-92.1795</longitude><latitude>34.6722</latitude><range>10934.7</range></LookAt><Point><coordinates>-92.1795,34.6722,10934.7</coordinates><altitudeMode>relativeToGround</altitudeMode></Point></Placemark><Placemark id="adda24"><name>AAL1228 </name><description>United States</description><open>1</open><extrude>0</extrude><LookAt><longitude>-101.189</longitude><latitude>34.0093</latitude><range>10294.62</range></LookAt><Point><coordinates>-101.189,34.0093,10294.62</coordinates><altitudeMode>relativeToGround</altitudeMode></Point></Placemark><Placemark id="3c65a9"><name>DLH779  </name><description>Germany</description><open>1</open><extrude>0</extrude><LookAt><longitude>100.014</longitude><latitude>2.911</latitude><range>11018.52</range></LookAt><Point><coordinates>100.014,2.911,11018.52</coordinates><altitudeMode>relativeToGround</altitudeMode></Point></Placemark><Placemark id="a127d3"><name>N1738S  </name><description>United States</description><open>1</open><extrude>0</extrude><LookAt><longitude>-112.648</longitude><latitude>33.3909</latitude><range>2202.18</range></LookAt><Point><coordinates>-112.648,33.3909,2202.18</coordinates><altitudeMode>relativeToGround</altitudeMode></Point></Placemark><Placemark id="a96577"><name>DAL423  </name><description>United States</description><open>1</open><extrude>0</extrude><LookAt><longitude>-78.0697</longitude><latitude>40.0572</latitude><range>11529.06</range></LookAt><Point><coordinates>-78.0697,40.0572,11529.06</coordinates><altitudeMode>relativeToGround</altitudeMode></Point></Placemark><Placemark id="a94b4b"><name>UAL1858 </name><description>United States</description><open>1</open><extrude>0</extrude><LookAt><longitude>-84.4797</longitude><latitude>39.9564</latitude><range>11216.64</range></LookAt><Point><coordinates>-84.4797,39.9564,11216.64</coordinates><altitudeMode>relativeToGround</altitudeMode></Point></Placemark><Placemark id="471ee0"><name>WZZ7317 </name><description>Hungary</description><open>1</open><extrude>0</extrude><LookAt><longitude>25.9193</longitude><latitude>51.0851</latitude><range>11887.2</range></LookAt><Point><coordinates>25.9193,51.0851,11887.2</coordinates><altitudeMode>relativeToGround</altitudeMode></Point></Placemark><Placemark id="4b187c"><name>SWR18   </name><description>Switzerland</description><open>1</open><extrude>0</extrude><LookAt><longitude>0.0373</longitude><latitude>48.9503</latitude><range>10751.82</range></LookAt><Point><coordinates>0.0373,48.9503,10751.82</coordinates><altitudeMode>relativeToGround</altitudeMode></Point></Placemark><Placemark id="471ee1"><name>WZZ1283 </name><description>Hungary</description><open>1</open><extrude>0</extrude><LookAt><longitude>34.9029</longitude><latitude>32.0222</latitude><range>106.68</range></LookAt><Point><coordinates>34.9029,32.0222,106.68</coordinates><altitudeMode>relativeToGround</altitudeMode></Point></Placemark><Placemark id="a9a215"><name>N72KA   </name><description>United States</description><open>1</open><extrude>0</extrude><LookAt><longitude>-122.9979</longitude><latitude>48.3106</latitude><range>1371.6</range></LookAt><Point><coordinates>-122.9979,48.3106,1371.6</coordinates><altitudeMode>relativeToGround</altitudeMode></Point></Placemark><Placemark id="accd69"><name>DAL1357 </name><description>United States</description><open>1</open><extrude>0</extrude><LookAt><longitude>-85.108</longitude><latitude>42.4498</latitude><range>7780.02</range></LookAt><Point><coordinates>-85.108,42.4498,7780.02</coordinates><altitudeMode>relativeToGround</altitudeMode></Point></Placemark><Placemark id="3c65ac"><name>DLH728  </name><description>Germany</description><open>1</open><extrude>0</extrude><LookAt><longitude>21.8836</longitude><latitude>52.0081</latitude><range>10835.64</range></LookAt><Point><coordinates>21.8836,52.0081,10835.64</coordinates><altitudeMode>relativeToGround</altitudeMode></Point></Placemark><Placemark id="ab649a"><name>DAL177  </name><description>United States</description><open>1</open><extrude>0</extrude><LookAt><longitude>-61.8268</longitude><latitude>48.5769</latitude><range>10767.06</range></LookAt><Point><coordinates>-61.8268,48.5769,10767.06</coordinates><altitudeMode>relativeToGround</altitudeMode></Point></Placemark><Placemark id="3c65ab"><name>DLH400  </name><description>Germany</description><open>1</open><extrude>0</extrude><LookAt><longitude>-71.1233</longitude><latitude>42.3273</latitude><range>12664.44</range></LookAt><Point><coordinates>-71.1233,42.3273,12664.44</coordinates><altitudeMode>relativeToGround</altitudeMode></Point></Placemark><Placemark id="ac7160"><name>N900YP  </name><description>United States</description><open>1</open><extrude>0</extrude><LookAt><longitude>-90.0781</longitude><latitude>40.9653</latitude><range>13670.28</range></LookAt><Point><coordinates>-90.0781,40.9653,13670.28</coordinates><altitudeMode>relativeToGround</altitudeMode></Point></Placemark><Placemark id="0d0add"><name>AIJ2317 </name><description>Mexico</description><open>1</open><extrude>0</extrude><LookAt><longitude>-98.9955</longitude><latitude>20.4781</latitude><range>8656.32</range></LookAt><Point><coordinates>-98.9955,20.4781,8656.32</coordinates><altitudeMode>relativeToGround</altitudeMode></Point></Placemark><Placemark id="4b187a"><name>SWR54N  </name><description>Switzerland</description><open>1</open><extrude>0</extrude><LookAt><longitude>-49.8964</longitude><latitude>48.0324</latitude><range>12115.8</range></LookAt><Point><coordinates>-49.8964,48.0324,12115.8</coordinates><altitudeMode>relativeToGround</altitudeMode></Point></Placemark><Placemark id="3455d7"><name>VOE701  </name><description>Spain</description><open>1</open><extrude>0</extrude><LookAt><longitude>-0.0826</longitude><latitude>44.5812</latitude><range>6057.9</range></LookAt><Point><coordinates>-0.0826,44.5812,6057.9</coordinates><altitudeMode>relativeToGround</altitudeMode></Point></Placemark><Placemark id="440248"><name>EJU7743 </name><description>Austria</description><open>1</open><extrude>0</extrude><LookAt><longitude>8.2863</longitude><latitude>41.7773</latitude><range>7139.94</range></LookAt><Point><coordinates>8.2863,41.7773,7139.94</coordinates><altitudeMode>relativeToGround</altitudeMode></Point></Placemark><Placemark id="4b1886"><name>SWR2GN  </name><description>Switzerland</description><open>1</open><extrude>0</extrude><LookAt><longitude>-62.2374</longitude><latitude>45.2937</latitude><range>11780.52</range></LookAt><Point><coordinates>-62.2374,45.2937,11780.52</coordinates><altitudeMode>relativeToGround</altitudeMode></Point></Placemark><Placemark id="4b1887"><name>SWR242  </name><description>Switzerland</description><open>1</open><extrude>0</extrude><LookAt><longitude>55.5637</longitude><latitude>25.2247</latitude><range>1859.28</range></LookAt><Point><coordinates>55.5637,25.2247,1859.28</coordinates><altitudeMode>relativeToGround</altitudeMode></Point></Placemark><Placemark id="adb7ee"><name>SKW5213 </name><description>United States</description><open>1</open><extrude>0</extrude><LookAt><longitude>-106.6005</longitude><latitude>35.0442</latitude><range>null</range></LookAt><Point><coordinates>-106.6005,35.0442,null</coordinates><altitudeMode>relativeToGround</altitudeMode></Point></Placemark><Placemark id="3c65c1"><name>DLH22V  </name><description>Germany</description><open>1</open><extrude>0</extrude><LookAt><longitude>5.1208</longitude><latitude>45.5722</latitude><range>1021.08</range></LookAt><Point><coordinates>5.1208,45.5722,1021.08</coordinates><altitudeMode>relativeToGround</altitudeMode></Point></Placemark><Placemark id="3455d6"><name>VOE1NP  </name><description>Spain</description><open>1</open><extrude>0</extrude><LookAt><longitude>14.9833</longitude><latitude>37.5458</latitude><range>6393.18</range></LookAt><Point><coordinates>14.9833,37.5458,6393.18</coordinates><altitudeMode>relativeToGround</altitudeMode></Point></Placemark><Placemark id="ae010f"><name>SCORE86 </name><description>United States</description><open>1</open><extrude>0</extrude><LookAt><longitude>-76.3895</longitude><latitude>38.2748</latitude><range>38.1</range></LookAt><Point><coordinates>-76.3895,38.2748,38.1</coordinates><altitudeMode>relativeToGround</altitudeMode></Point></Placemark><Placemark id="a05776"><name>AAL1384 </name><description>United States</description><open>1</open><extrude>0</extrude><LookAt><longitude>-113.8042</longitude><latitude>34.5442</latitude><range>10241.28</range></LookAt><Point><coordinates>-113.8042,34.5442,10241.28</coordinates><altitudeMode>relativeToGround</altitudeMode></Point></Placemark><Placemark id="a83e86"><name>JBU120  </name><description>United States</description><open>1</open><extrude>0</extrude><LookAt><longitude>-76.3449</longitude><latitude>38.3476</latitude><range>11887.2</range></LookAt><Point><coordinates>-76.3449,38.3476,11887.2</coordinates><altitudeMode>relativeToGround</altitudeMode></Point></Placemark><Placemark id="accd5e"><name>DAL1089 </name><description>United States</description><open>1</open><extrude>0</extrude><LookAt><longitude>-97.5051</longitude><latitude>32.8441</latitude><range>9639.3</range></LookAt><Point><coordinates>-97.5051,32.8441,9639.3</coordinates><altitudeMode>relativeToGround</altitudeMode></Point></Placemark><Placemark id="c0224f"><name>ACA710  </name><description>Canada</description><open>1</open><extrude>0</extrude><LookAt><longitude>-79.0733</longitude><latitude>43.4735</latitude><range>4373.88</range></LookAt><Point><coordinates>-79.0733,43.4735,4373.88</coordinates><altitudeMode>relativeToGround</altitudeMode></Point></Placemark><Placemark id="4b1880"><name>SWR86   </name><description>Switzerland</description><open>1</open><extrude>0</extrude><LookAt><longitude>-52.6562</longitude><latitude>48.7508</latitude><range>12085.32</range></LookAt><Point><coordinates>-52.6562,48.7508,12085.32</coordinates><altitudeMode>relativeToGround</altitudeMode></Point></Placemark><Placemark id="ab5180"><name>N8284J  </name><description>United States</description><open>1</open><extrude>0</extrude><LookAt><longitude>-104.9584</longitude><latitude>40.3607</latitude><range>2156.46</range></LookAt><Point><coordinates>-104.9584,40.3607,2156.46</coordinates><altitudeMode>relativeToGround</altitudeMode></Point></Placemark><Placemark id="3c65aa"><name>DLH440  </name><description>Germany</description><open>1</open><extrude>0</extrude><LookAt><longitude>-81.6973</longitude><latitude>40.1226</latitude><range>12161.52</range></LookAt><Point><coordinates>-81.6973,40.1226,12161.52</coordinates><altitudeMode>relativeToGround</altitudeMode></Point></Placemark><Placemark id="ad9d6f"><name>N9768R  </name><description>United States</description><open>1</open><extrude>0</extrude><LookAt><longitude>-118.429</longitude><latitude>34.2948</latitude><range>800.1</range></LookAt><Point><coordinates>-118.429,34.2948,800.1</coordinates><altitudeMode>relativeToGround</altitudeMode></Point></Placemark><Placemark id="3c5ee8"><name>EWG9FC  </name><description>Germany</description><open>1</open><extrude>0</extrude><LookAt><longitude>5.5057</longitude><latitude>40.9117</latitude><range>10050.78</range></LookAt><Point><coordinates>5.5057,40.9117,10050.78</coordinates><altitudeMode>relativeToGround</altitudeMode></Point></Placemark><Placemark id="318bf5"><name/><description>Italy</description><open>1</open><extrude>0</extrude><LookAt><longitude>null</longitude><latitude>null</latitude><range>null</range></LookAt><Point><coordinates>null,null,null</coordinates><altitudeMode>relativeToGround</altitudeMode></Point></Placemark><Placemark id="ae1479"><name>VM767   </name><description>United States</description><open>1</open><extrude>0</extrude><LookAt><longitude>-90.2745</longitude><latitude>44.0852</latitude><range>12207.24</range></LookAt><Point><coordinates>-90.2745,44.0852,12207.24</coordinates><altitudeMode>relativeToGround</altitudeMode></Point></Placemark><Placemark id="3c5ee9"><name>EWG1NM  </name><description>Germany</description><open>1</open><extrude>0</extrude><LookAt><longitude>11.7066</longitude><latitude>48.3372</latitude><range>701.04</range></LookAt><Point><coordinates>11.7066,48.3372,701.04</coordinates><altitudeMode>relativeToGround</altitudeMode></Point></Placemark><Placemark id="3c65d0"><name>DLH09Y  </name><description>Germany</description><open>1</open><extrude>0</extrude><LookAt><longitude>1.3203</longitude><latitude>40.0553</latitude><range>8625.84</range></LookAt><Point><coordinates>1.3203,40.0553,8625.84</coordinates><altitudeMode>relativeToGround</altitudeMode></Point></Placemark><Placemark id="acd481"><name>AAL2599 </name><description>United States</description><open>1</open><extrude>0</extrude><LookAt><longitude>-105.5766</longitude><latitude>34.7397</latitude><range>11856.72</range></LookAt><Point><coordinates>-105.5766,34.7397,11856.72</coordinates><altitudeMode>relativeToGround</altitudeMode></Point></Placemark><Placemark id="3c65d1"><name>DLH961  </name><description>Germany</description><open>1</open><extrude>0</extrude><LookAt><longitude>7.4259</longitude><latitude>50.9276</latitude><range>7620</range></LookAt><Point><coordinates>7.4259,50.9276,7620</coordinates><altitudeMode>relativeToGround</altitudeMode></Point></Placemark><Placemark id="3c65c7"><name>DLH6HT  </name><description>Germany</description><open>1</open><extrude>0</extrude><LookAt><longitude>4.6209</longitude><latitude>51.6273</latitude><range>10690.86</range></LookAt><Point><coordinates>4.6209,51.6273,10690.86</coordinates><altitudeMode>relativeToGround</altitudeMode></Point></Placemark><Placemark id="aded77"><name>JBU1817 </name><description>United States</description><open>1</open><extrude>0</extrude><LookAt><longitude>-66.5149</longitude><latitude>28.6966</latitude><range>10622.28</range></LookAt><Point><coordinates>-66.5149,28.6966,10622.28</coordinates><altitudeMode>relativeToGround</altitudeMode></Point></Placemark><Placemark id="a94b2b"><name>UAL1178 </name><description>United States</description><open>1</open><extrude>0</extrude><LookAt><longitude>-122.2618</longitude><latitude>38.5774</latitude><range>8473.44</range></LookAt><Point><coordinates>-122.2618,38.5774,8473.44</coordinates><altitudeMode>relativeToGround</altitudeMode></Point></Placemark><Placemark id="acd486"><name>DAL1638 </name><description>United States</description><open>1</open><extrude>0</extrude><LookAt><longitude>-86.2207</longitude><latitude>32.8548</latitude><range>8763</range></LookAt><Point><coordinates>-86.2207,32.8548,8763</coordinates><altitudeMode>relativeToGround</altitudeMode></Point></Placemark><Placemark id="abb47d"><name>853WM   </name><description>United States</description><open>1</open><extrude>0</extrude><LookAt><longitude>-74.3136</longitude><latitude>40.8432</latitude><range>7040.88</range></LookAt><Point><coordinates>-74.3136,40.8432,7040.88</coordinates><altitudeMode>relativeToGround</altitudeMode></Point></Placemark><Placemark id="ad41cd"><name>SWA980  </name><description>United States</description><open>1</open><extrude>0</extrude><LookAt><longitude>-106.2284</longitude><latitude>34.4893</latitude><range>11856.72</range></LookAt><Point><coordinates>-106.2284,34.4893,11856.72</coordinates><altitudeMode>relativeToGround</altitudeMode></Point></Placemark><Placemark id="3c5ef9"><name>EWG9767 </name><description>Germany</description><open>1</open><extrude>0</extrude><LookAt><longitude>8.5576</longitude><latitude>47.4535</latitude><range>null</range></LookAt><Point><coordinates>8.5576,47.4535,null</coordinates><altitudeMode>relativeToGround</altitudeMode></Point></Placemark><Placemark id="3c65cf"><name>DLH7LC  </name><description>Germany</description><open>1</open><extrude>0</extrude><LookAt><longitude>18.776</longitude><latitude>48.0458</latitude><range>6286.5</range></LookAt><Point><coordinates>18.776,48.0458,6286.5</coordinates><altitudeMode>relativeToGround</altitudeMode></Point></Placemark><Placemark id="0d0afd"><name>XAMLU   </name><description>Mexico</description><open>1</open><extrude>0</extrude><LookAt><longitude>-93.7107</longitude><latitude>34.8048</latitude><range>13106.4</range></LookAt><Point><coordinates>-93.7107,34.8048,13106.4</coordinates><altitudeMode>relativeToGround</altitudeMode></Point></Placemark><Placemark id="3c65cd"><name>DLH4H   </name><description>Germany</description><open>1</open><extrude>0</extrude><LookAt><longitude>6.6564</longitude><latitude>50.3448</latitude><range>7353.3</range></LookAt><Point><coordinates>6.6564,50.3448,7353.3</coordinates><altitudeMode>relativeToGround</altitudeMode></Point></Placemark><Placemark id="3c5ef6"><name>EWG7TR  </name><description>Germany</description><open>1</open><extrude>0</extrude><LookAt><longitude>11.3478</longitude><latitude>52.4101</latitude><range>7543.8</range></LookAt><Point><coordinates>11.3478,52.4101,7543.8</coordinates><altitudeMode>relativeToGround</altitudeMode></Point></Placemark><Placemark id="a34294"><name/><description>United States</description><open>1</open><extrude>0</extrude><LookAt><longitude>null</longitude><latitude>null</latitude><range>null</range></LookAt><Point><coordinates>null,null,null</coordinates><altitudeMode>relativeToGround</altitudeMode></Point></Placemark><Placemark id="a94b48"><name>UAL1679 </name><description>United States</description><open>1</open><extrude>0</extrude><LookAt><longitude>-121.396</longitude><latitude>36.7741</latitude><range>7795.26</range></LookAt><Point><coordinates>-121.396,36.7741,7795.26</coordinates><altitudeMode>relativeToGround</altitudeMode></Point></Placemark><Placemark id="a915f3"><name>SKW3704 </name><description>United States</description><open>1</open><extrude>0</extrude><LookAt><longitude>-93.5864</longitude><latitude>44.4623</latitude><range>4587.24</range></LookAt><Point><coordinates>-93.5864,44.4623,4587.24</coordinates><altitudeMode>relativeToGround</altitudeMode></Point></Placemark><Placemark id="ad9d99"><name>N9769Y  </name><description>United States</description><open>1</open><extrude>0</extrude><LookAt><longitude>-83.2316</longitude><latitude>29.4386</latitude><range>2659.38</range></LookAt><Point><coordinates>-83.2316,29.4386,2659.38</coordinates><altitudeMode>relativeToGround</altitudeMode></Point></Placemark><Placemark id="3ff057"><name>DMEID   </name><description>Germany</description><open>1</open><extrude>0</extrude><LookAt><longitude>7.0295</longitude><latitude>50.6038</latitude><range>731.52</range></LookAt><Point><coordinates>7.0295,50.6038,731.52</coordinates><altitudeMode>relativeToGround</altitudeMode></Point></Placemark><Placemark id="a04422"><name>N116SW  </name><description>United States</description><open>1</open><extrude>0</extrude><LookAt><longitude>-80.8777</longitude><latitude>41.4055</latitude><range>14264.64</range></LookAt><Point><coordinates>-80.8777,41.4055,14264.64</coordinates><altitudeMode>relativeToGround</altitudeMode></Point></Placemark><Placemark id="3c5eec"><name>EWG1AT  </name><description>Germany</description><open>1</open><extrude>0</extrude><LookAt><longitude>4.5439</longitude><latitude>51.2077</latitude><range>10035.54</range></LookAt><Point><coordinates>4.5439,51.2077,10035.54</coordinates><altitudeMode>relativeToGround</altitudeMode></Point></Placemark><Placemark id="3c5eea"><name/><description>Germany</description><open>1</open><extrude>0</extrude><LookAt><longitude>null</longitude><latitude>null</latitude><range>null</range></LookAt><Point><coordinates>null,null,null</coordinates><altitudeMode>relativeToGround</altitudeMode></Point></Placemark><Placemark id="4858c7"><name>JNL706  </name><description>Kingdom of the Netherlands</description><open>1</open><extrude>0</extrude><LookAt><longitude>13.3102</longitude><latitude>46.9412</latitude><range>11407.14</range></LookAt><Point><coordinates>13.3102,46.9412,11407.14</coordinates><altitudeMode>relativeToGround</altitudeMode></Point></Placemark><Placemark id="e80242"><name>LPE2431 </name><description>Chile</description><open>1</open><extrude>0</extrude><LookAt><longitude>-11.9998</longitude><latitude>37.9719</latitude><range>9989.82</range></LookAt><Point><coordinates>-11.9998,37.9719,9989.82</coordinates><altitudeMode>relativeToGround</altitudeMode></Point></Placemark><Placemark id="a88bee"><name>LIFELN2 </name><description>United States</description><open>1</open><extrude>0</extrude><LookAt><longitude>-104.5185</longitude><latitude>38.8126</latitude><range>2110.74</range></LookAt><Point><coordinates>-104.5185,38.8126,2110.74</coordinates><altitudeMode>relativeToGround</altitudeMode></Point></Placemark><Placemark id="e48bf8"><name>AZU5176 </name><description>Brazil</description><open>1</open><extrude>0</extrude><LookAt><longitude>-48.5043</longitude><latitude>-22.7555</latitude><range>5715</range></LookAt><Point><coordinates>-48.5043,-22.7555,5715</coordinates><altitudeMode>relativeToGround</altitudeMode></Point></Placemark><Placemark id="3c65cc"><name>DLH5KX  </name><description>Germany</description><open>1</open><extrude>0</extrude><LookAt><longitude>8.5628</longitude><latitude>50.0474</latitude><range>null</range></LookAt><Point><coordinates>8.5628,50.0474,null</coordinates><altitudeMode>relativeToGround</altitudeMode></Point></Placemark><Placemark id="3c5ef5"><name>EWG47U  </name><description>Germany</description><open>1</open><extrude>0</extrude><LookAt><longitude>6.727</longitude><latitude>51.6883</latitude><range>5669.28</range></LookAt><Point><coordinates>6.727,51.6883,5669.28</coordinates><altitudeMode>relativeToGround</altitudeMode></Point></Placemark><Placemark id="3c65ca"><name>DLH7MU  </name><description>Germany</description><open>1</open><extrude>0</extrude><LookAt><longitude>8.4825</longitude><latitude>48.6299</latitude><range>9563.1</range></LookAt><Point><coordinates>8.4825,48.6299,9563.1</coordinates><altitudeMode>relativeToGround</altitudeMode></Point></Placemark><Placemark id="440219"><name/><description>Austria</description><open>1</open><extrude>0</extrude><LookAt><longitude>6.2086</longitude><latitude>49.6284</latitude><range>null</range></LookAt><Point><coordinates>6.2086,49.6284,null</coordinates><altitudeMode>relativeToGround</altitudeMode></Point></Placemark><Placemark id="4ba2cd"><name>TCHVM   </name><description>Turkey</description><open>1</open><extrude>0</extrude><LookAt><longitude>29.2469</longitude><latitude>40.8231</latitude><range>228.6</range></LookAt><Point><coordinates>29.2469,40.8231,228.6</coordinates><altitudeMode>relativeToGround</altitudeMode></Point></Placemark><Placemark id="318bd5"><name/><description>Italy</description><open>1</open><extrude>0</extrude><LookAt><longitude>null</longitude><latitude>null</latitude><range>null</range></LookAt><Point><coordinates>null,null,null</coordinates><altitudeMode>relativeToGround</altitudeMode></Point></Placemark><Placemark id="471ea8"><name>WZZ9BK  </name><description>Hungary</description><open>1</open><extrude>0</extrude><LookAt><longitude>22.5383</longitude><latitude>46.459</latitude><range>8008.62</range></LookAt><Point><coordinates>22.5383,46.459,8008.62</coordinates><altitudeMode>relativeToGround</altitudeMode></Point></Placemark><Placemark id="0d0aa0"><name>SLI2726 </name><description>Mexico</description><open>1</open><extrude>0</extrude><LookAt><longitude>-85.4042</longitude><latitude>40.7279</latitude><range>8267.7</range></LookAt><Point><coordinates>-85.4042,40.7279,8267.7</coordinates><altitudeMode>relativeToGround</altitudeMode></Point></Placemark><Placemark id="a94b0a"><name>UAL572  </name><description>United States</description><open>1</open><extrude>0</extrude><LookAt><longitude>-122.1957</longitude><latitude>37.5429</latitude><range>861.06</range></LookAt><Point><coordinates>-122.1957,37.5429,861.06</coordinates><altitudeMode>relativeToGround</altitudeMode></Point></Placemark><Placemark id="471ea9"><name>WZZ1BN  </name><description>Hungary</description><open>1</open><extrude>0</extrude><LookAt><longitude>4.4228</longitude><latitude>41.6956</latitude><range>9639.3</range></LookAt><Point><coordinates>4.4228,41.6956,9639.3</coordinates><altitudeMode>relativeToGround</altitudeMode></Point></Placemark><Placemark id="471ea6"><name>WZZ2WV  </name><description>Hungary</description><open>1</open><extrude>0</extrude><LookAt><longitude>25.4949</longitude><latitude>44.5687</latitude><range>2057.4</range></LookAt><Point><coordinates>25.4949,44.5687,2057.4</coordinates><altitudeMode>relativeToGround</altitudeMode></Point></Placemark><Placemark id="a0f4d6"><name>N16058  </name><description>United States</description><open>1</open><extrude>0</extrude><LookAt><longitude>-122.9707</longitude><latitude>45.4206</latitude><range>274.32</range></LookAt><Point><coordinates>-122.9707,45.4206,274.32</coordinates><altitudeMode>relativeToGround</altitudeMode></Point></Placemark><Placemark id="adda5d"><name>TGR61   </name><description>United States</description><open>1</open><extrude>0</extrude><LookAt><longitude>-104.5171</longitude><latitude>38.2902</latitude><range>1470.66</range></LookAt><Point><coordinates>-104.5171,38.2902,1470.66</coordinates><altitudeMode>relativeToGround</altitudeMode></Point></Placemark><Placemark id="a94b0b"><name>UAL2120 </name><description>United States</description><open>1</open><extrude>0</extrude><LookAt><longitude>-75.7487</longitude><latitude>38.0127</latitude><range>10911.84</range></LookAt><Point><coordinates>-75.7487,38.0127,10911.84</coordinates><altitudeMode>relativeToGround</altitudeMode></Point></Placemark><Placemark id="aa30c4"><name>N756EN  </name><description>United States</description><open>1</open><extrude>0</extrude><LookAt><longitude>null</longitude><latitude>null</latitude><range>null</range></LookAt><Point><coordinates>null,null,null</coordinates><altitudeMode>relativeToGround</altitudeMode></Point></Placemark><Placemark id="44020a"><name>AUA854  </name><description>Austria</description><open>1</open><extrude>0</extrude><LookAt><longitude>17.1085</longitude><latitude>47.7464</latitude><range>3093.72</range></LookAt><Point><coordinates>17.1085,47.7464,3093.72</coordinates><altitudeMode>relativeToGround</altitudeMode></Point></Placemark><Placemark id="a2cd23"><name>N28RK   </name><description>United States</description><open>1</open><extrude>0</extrude><LookAt><longitude>-115.9163</longitude><latitude>47.6829</latitude><range>6499.86</range></LookAt><Point><coordinates>-115.9163,47.6829,6499.86</coordinates><altitudeMode>relativeToGround</altitudeMode></Point></Placemark><Placemark id="a6f207"><name>RDN177  </name><description>United States</description><open>1</open><extrude>0</extrude><LookAt><longitude>-87.7509</longitude><latitude>41.7817</latitude><range>null</range></LookAt><Point><coordinates>-87.7509,41.7817,null</coordinates><altitudeMode>relativeToGround</altitudeMode></Point></Placemark><Placemark id="a1b422"><name>HAL59   </name><description>United States</description><open>1</open><extrude>0</extrude><LookAt><longitude>-124.2512</longitude><latitude>36.8694</latitude><range>10111.74</range></LookAt><Point><coordinates>-124.2512,36.8694,10111.74</coordinates><altitudeMode>relativeToGround</altitudeMode></Point></Placemark><Placemark id="a2cd22"><name>N28RJ   </name><description>United States</description><open>1</open><extrude>0</extrude><LookAt><longitude>-114.1661</longitude><latitude>35.2366</latitude><range>3611.88</range></LookAt><Point><coordinates>-114.1661,35.2366,3611.88</coordinates><altitudeMode>relativeToGround</altitudeMode></Point></Placemark><Placemark id="440202"><name>EJU961C </name><description>Austria</description><open>1</open><extrude>0</extrude><LookAt><longitude>1.8411</longitude><latitude>45.0989</latitude><range>7018.02</range></LookAt><Point><coordinates>1.8411,45.0989,7018.02</coordinates><altitudeMode>relativeToGround</altitudeMode></Point></Placemark><Placemark id="a90ede"><name>FDX674  </name><description>United States</description><open>1</open><extrude>0</extrude><LookAt><longitude>-93.3259</longitude><latitude>36.038</latitude><range>11277.6</range></LookAt><Point><coordinates>-93.3259,36.038,11277.6</coordinates><altitudeMode>relativeToGround</altitudeMode></Point></Placemark><Placemark id="a5958c"><name>SWA9003 </name><description>United States</description><open>1</open><extrude>0</extrude><LookAt><longitude>-86.4859</longitude><latitude>42.6226</latitude><range>11536.68</range></LookAt><Point><coordinates>-86.4859,42.6226,11536.68</coordinates><altitudeMode>relativeToGround</altitudeMode></Point></Placemark><Placemark id="a5cb51"><name/><description>United States</description><open>1</open><extrude>0</extrude><LookAt><longitude>null</longitude><latitude>null</latitude><range>426.72</range></LookAt><Point><coordinates>null,null,426.72</coordinates><altitudeMode>relativeToGround</altitudeMode></Point></Placemark><Placemark id="318bca"><name/><description>Italy</description><open>1</open><extrude>0</extrude><LookAt><longitude>null</longitude><latitude>null</latitude><range>null</range></LookAt><Point><coordinates>null,null,null</coordinates><altitudeMode>relativeToGround</altitudeMode></Point></Placemark><Placemark id="0d0ab4"><name>AIJ2201 </name><description>Mexico</description><open>1</open><extrude>0</extrude><LookAt><longitude>-99.1057</longitude><latitude>19.4159</latitude><range>2392.68</range></LookAt><Point><coordinates>-99.1057,19.4159,2392.68</coordinates><altitudeMode>relativeToGround</altitudeMode></Point></Placemark><Placemark id="a4b259"><name>SWA733  </name><description>United States</description><open>1</open><extrude>0</extrude><LookAt><longitude>-106.5821</longitude><latitude>41.3036</latitude><range>12047.22</range></LookAt><Point><coordinates>-106.5821,41.3036,12047.22</coordinates><altitudeMode>relativeToGround</altitudeMode></Point></Placemark><Placemark id="a6fe54"><name>GPD55   </name><description>United States</description><open>1</open><extrude>0</extrude><LookAt><longitude>-71.6464</longitude><latitude>41.1674</latitude><range>4922.52</range></LookAt><Point><coordinates>-71.6464,41.1674,4922.52</coordinates><altitudeMode>relativeToGround</altitudeMode></Point></Placemark><Placemark id="a39d0f"><name>N33180  </name><description>United States</description><open>1</open><extrude>0</extrude><LookAt><longitude>-74.9225</longitude><latitude>39.7082</latitude><range>266.7</range></LookAt><Point><coordinates>-74.9225,39.7082,266.7</coordinates><altitudeMode>relativeToGround</altitudeMode></Point></Placemark><Placemark id="ad6922"><name>AAL2291 </name><description>United States</description><open>1</open><extrude>0</extrude><LookAt><longitude>-75.3304</longitude><latitude>39.4853</latitude><range>4030.98</range></LookAt><Point><coordinates>-75.3304,39.4853,4030.98</coordinates><altitudeMode>relativeToGround</altitudeMode></Point></Placemark><Placemark id="a71e92"><name>EJA558  </name><description>United States</description><open>1</open><extrude>0</extrude><LookAt><longitude>-82.9603</longitude><latitude>40.0054</latitude><range>1074.42</range></LookAt><Point><coordinates>-82.9603,40.0054,1074.42</coordinates><altitudeMode>relativeToGround</altitudeMode></Point></Placemark><Placemark id="4cc2a7"><name>ICE3K   </name><description>Iceland</description><open>1</open><extrude>0</extrude><LookAt><longitude>4.2118</longitude><latitude>52.9964</latitude><range>11803.38</range></LookAt><Point><coordinates>4.2118,52.9964,11803.38</coordinates><altitudeMode>relativeToGround</altitudeMode></Point></Placemark><Placemark id="440237"><name>EJU16BZ </name><description>Austria</description><open>1</open><extrude>0</extrude><LookAt><longitude>5.0294</longitude><latitude>52.0906</latitude><range>1341.12</range></LookAt><Point><coordinates>5.0294,52.0906,1341.12</coordinates><altitudeMode>relativeToGround</altitudeMode></Point></Placemark><Placemark id="440236"><name>OEFLG   </name><description>Austria</description><open>1</open><extrude>0</extrude><LookAt><longitude>15.0132</longitude><latitude>47.0796</latitude><range>4320.54</range></LookAt><Point><coordinates>15.0132,47.0796,4320.54</coordinates><altitudeMode>relativeToGround</altitudeMode></Point></Placemark><Placemark id="a1ad1f"><name>N207MH  </name><description>United States</description><open>1</open><extrude>0</extrude><LookAt><longitude>-73.9869</longitude><latitude>40.7301</latitude><range>594.36</range></LookAt><Point><coordinates>-73.9869,40.7301,594.36</coordinates><altitudeMode>relativeToGround</altitudeMode></Point></Placemark><Placemark id="a7cef7"><name>CPZ5703 </name><description>United States</description><open>1</open><extrude>0</extrude><LookAt><longitude>-121.6194</longitude><latitude>38.8335</latitude><range>647.7</range></LookAt><Point><coordinates>-121.6194,38.8335,647.7</coordinates><altitudeMode>relativeToGround</altitudeMode></Point></Placemark><Placemark id="abd9b6"><name>SWA1373 </name><description>United States</description><open>1</open><extrude>0</extrude><LookAt><longitude>-92.145</longitude><latitude>39.4911</latitude><range>11064.24</range></LookAt><Point><coordinates>-92.145,39.4911,11064.24</coordinates><altitudeMode>relativeToGround</altitudeMode></Point></Placemark><Placemark id="a8321a"><name>ASA1014 </name><description>United States</description><open>1</open><extrude>0</extrude><LookAt><longitude>-91.2938</longitude><latitude>43.0595</latitude><range>9502.14</range></LookAt><Point><coordinates>-91.2938,43.0595,9502.14</coordinates><altitudeMode>relativeToGround</altitudeMode></Point></Placemark><Placemark id="c02e92"><name>SKV7515 </name><description>Canada</description><open>1</open><extrude>0</extrude><LookAt><longitude>-71.4359</longitude><latitude>42.7991</latitude><range>6088.38</range></LookAt><Point><coordinates>-71.4359,42.7991,6088.38</coordinates><altitudeMode>relativeToGround</altitudeMode></Point></Placemark><Placemark id="a785fd"><name>JIA5323 </name><description>United States</description><open>1</open><extrude>0</extrude><LookAt><longitude>-83.0649</longitude><latitude>35.3725</latitude><range>9570.72</range></LookAt><Point><coordinates>-83.0649,35.3725,9570.72</coordinates><altitudeMode>relativeToGround</altitudeMode></Point></Placemark><Placemark id="aa3ce7"><name>EJA759  </name><description>United States</description><open>1</open><extrude>0</extrude><LookAt><longitude>-110.7094</longitude><latitude>39.9482</latitude><range>13578.84</range></LookAt><Point><coordinates>-110.7094,39.9482,13578.84</coordinates><altitudeMode>relativeToGround</altitudeMode></Point></Placemark><Placemark id="a22dad"><name>N24AG   </name><description>United States</description><open>1</open><extrude>0</extrude><LookAt><longitude>-81.3374</longitude><latitude>28.982</latitude><range>2232.66</range></LookAt><Point><coordinates>-81.3374,28.982,2232.66</coordinates><altitudeMode>relativeToGround</altitudeMode></Point></Placemark><Placemark id="44022d"><name>AUA35HZ </name><description>Austria</description><open>1</open><extrude>0</extrude><LookAt><longitude>11.0893</longitude><latitude>49.7723</latitude><range>10988.04</range></LookAt><Point><coordinates>11.0893,49.7723,10988.04</coordinates><altitudeMode>relativeToGround</altitudeMode></Point></Placemark><Placemark id="a6eb58"><name>N545JS  </name><description>United States</description><open>1</open><extrude>0</extrude><LookAt><longitude>-88.978</longitude><latitude>37.437</latitude><range>10561.32</range></LookAt><Point><coordinates>-88.978,37.437,10561.32</coordinates><altitudeMode>relativeToGround</altitudeMode></Point></Placemark><Placemark id="c01b4f"><name>WJA608  </name><description>Canada</description><open>1</open><extrude>0</extrude><LookAt><longitude>-122.1913</longitude><latitude>49.1033</latitude><range>6804.66</range></LookAt><Point><coordinates>-122.1913,49.1033,6804.66</coordinates><altitudeMode>relativeToGround</altitudeMode></Point></Placemark><Placemark id="a7d5cc"><name/><description>United States</description><open>1</open><extrude>0</extrude><LookAt><longitude>-111.9049</longitude><latitude>33.2117</latitude><range>1699.26</range></LookAt><Point><coordinates>-111.9049,33.2117,1699.26</coordinates><altitudeMode>relativeToGround</altitudeMode></Point></Placemark><Placemark id="44022b"><name>AUA30KE </name><description>Austria</description><open>1</open><extrude>0</extrude><LookAt><longitude>15.8601</longitude><latitude>51.6934</latitude><range>10850.88</range></LookAt><Point><coordinates>15.8601,51.6934,10850.88</coordinates><altitudeMode>relativeToGround</altitudeMode></Point></Placemark><Placemark id="0d0aba"><name>SLI2718 </name><description>Mexico</description><open>1</open><extrude>0</extrude><LookAt><longitude>null</longitude><latitude>null</latitude><range>null</range></LookAt><Point><coordinates>null,null,null</coordinates><altitudeMode>relativeToGround</altitudeMode></Point></Placemark><Placemark id="aa56f8"><name>UAL814  </name><description>United States</description><open>1</open><extrude>0</extrude><LookAt><longitude>-94.1409</longitude><latitude>41.4074</latitude><range>12138.66</range></LookAt><Point><coordinates>-94.1409,41.4074,12138.66</coordinates><altitudeMode>relativeToGround</altitudeMode></Point></Placemark><Placemark id="a94b05"><name>UAL1189 </name><description>United States</description><open>1</open><extrude>0</extrude><LookAt><longitude>-113.9743</longitude><latitude>36.2041</latitude><range>10210.8</range></LookAt><Point><coordinates>-113.9743,36.2041,10210.8</coordinates><altitudeMode>relativeToGround</altitudeMode></Point></Placemark><Placemark id="a94b02"><name>UAL416  </name><description>United States</description><open>1</open><extrude>0</extrude><LookAt><longitude>-95.5028</longitude><latitude>41.3127</latitude><range>11513.82</range></LookAt><Point><coordinates>-95.5028,41.3127,11513.82</coordinates><altitudeMode>relativeToGround</altitudeMode></Point></Placemark><Placemark id="47880d"><name>SAS945  </name><description>Norway</description><open>1</open><extrude>0</extrude><LookAt><longitude>-86.0919</longitude><latitude>42.9484</latitude><range>7437.12</range></LookAt><Point><coordinates>-86.0919,42.9484,7437.12</coordinates><altitudeMode>relativeToGround</altitudeMode></Point></Placemark><Placemark id="a94b08"><name>UAL2254 </name><description>United States</description><open>1</open><extrude>0</extrude><LookAt><longitude>-82.3575</longitude><latitude>29.5756</latitude><range>8724.9</range></LookAt><Point><coordinates>-82.3575,29.5756,8724.9</coordinates><altitudeMode>relativeToGround</altitudeMode></Point></Placemark><Placemark id="a85887"><name>JBU1287 </name><description>United States</description><open>1</open><extrude>0</extrude><LookAt><longitude>-76.2172</longitude><latitude>37.1157</latitude><range>11544.3</range></LookAt><Point><coordinates>-76.2172,37.1157,11544.3</coordinates><altitudeMode>relativeToGround</altitudeMode></Point></Placemark><Placemark id="aaf60a"><name>SKW3522 </name><description>United States</description><open>1</open><extrude>0</extrude><LookAt><longitude>-109.0685</longitude><latitude>38.6904</latitude><range>11163.3</range></LookAt><Point><coordinates>-109.0685,38.6904,11163.3</coordinates><altitudeMode>relativeToGround</altitudeMode></Point></Placemark><Placemark id="0d0ad2"><name>AIJ2520 </name><description>Mexico</description><open>1</open><extrude>0</extrude><LookAt><longitude>-98.693</longitude><latitude>19.5626</latitude><range>5646.42</range></LookAt><Point><coordinates>-98.693,19.5626,5646.42</coordinates><altitudeMode>relativeToGround</altitudeMode></Point></Placemark><Placemark id="a0f4c4"><name/><description>United States</description><open>1</open><extrude>0</extrude><LookAt><longitude>16.3772</longitude><latitude>47.9203</latitude><range>708.66</range></LookAt><Point><coordinates>16.3772,47.9203,708.66</coordinates><altitudeMode>relativeToGround</altitudeMode></Point></Placemark><Placemark id="a0a761"><name>N141L   </name><description>United States</description><open>1</open><extrude>0</extrude><LookAt><longitude>-71.1887</longitude><latitude>42.2055</latitude><range>762</range></LookAt><Point><coordinates>-71.1887,42.2055,762</coordinates><altitudeMode>relativeToGround</altitudeMode></Point></Placemark><Placemark id="758369"><name>PAL466  </name><description>Philippines</description><open>1</open><extrude>0</extrude><LookAt><longitude>121.3059</longitude><latitude>16.0494</latitude><range>8252.46</range></LookAt><Point><coordinates>121.3059,16.0494,8252.46</coordinates><altitudeMode>relativeToGround</altitudeMode></Point></Placemark><Placemark id="5110be"><name>JAF3PM  </name><description>Estonia</description><open>1</open><extrude>0</extrude><LookAt><longitude>26.1308</longitude><latitude>37.7585</latitude><range>11269.98</range></LookAt><Point><coordinates>26.1308,37.7585,11269.98</coordinates><altitudeMode>relativeToGround</altitudeMode></Point></Placemark><Placemark id="4248f4"><name>AFL2304 </name><description>United Kingdom</description><open>1</open><extrude>0</extrude><LookAt><longitude>31.128</longitude><latitude>55.6093</latitude><range>10340.34</range></LookAt><Point><coordinates>31.128,55.6093,10340.34</coordinates><altitudeMode>relativeToGround</altitudeMode></Point></Placemark><Placemark id="ab5d1c"><name>N831LS  </name><description>United States</description><open>1</open><extrude>0</extrude><LookAt><longitude>-106.6372</longitude><latitude>37.3264</latitude><range>8656.32</range></LookAt><Point><coordinates>-106.6372,37.3264,8656.32</coordinates><altitudeMode>relativeToGround</altitudeMode></Point></Placemark><Placemark id="aa441c"><name>UAL879  </name><description>United States</description><open>1</open><extrude>0</extrude><LookAt><longitude>-84.316</longitude><latitude>37.5816</latitude><range>12763.5</range></LookAt><Point><coordinates>-84.316,37.5816,12763.5</coordinates><altitudeMode>relativeToGround</altitudeMode></Point></Placemark><Placemark id="4248ea"><name>SVR080  </name><description>United Kingdom</description><open>1</open><extrude>0</extrude><LookAt><longitude>37.0773</longitude><latitude>56.5732</latitude><range>9959.34</range></LookAt><Point><coordinates>37.0773,56.5732,9959.34</coordinates><altitudeMode>relativeToGround</altitudeMode></Point></Placemark><Placemark id="c0482a"><name/><description>Canada</description><open>1</open><extrude>0</extrude><LookAt><longitude>-86.0118</longitude><latitude>36.871</latitude><range>null</range></LookAt><Point><coordinates>-86.0118,36.871,null</coordinates><altitudeMode>relativeToGround</altitudeMode></Point></Placemark><Placemark id="a3ed69"><name>DAL421  </name><description>United States</description><open>1</open><extrude>0</extrude><LookAt><longitude>-83.8751</longitude><latitude>41.9889</latitude><range>11209.02</range></LookAt><Point><coordinates>-83.8751,41.9889,11209.02</coordinates><altitudeMode>relativeToGround</altitudeMode></Point></Placemark><Placemark id="a7d711"><name>SWG732  </name><description>United States</description><open>1</open><extrude>0</extrude><LookAt><longitude>-80.088</longitude><latitude>40.4379</latitude><range>10957.56</range></LookAt><Point><coordinates>-80.088,40.4379,10957.56</coordinates><altitudeMode>relativeToGround</altitudeMode></Point></Placemark><Placemark id="a3f43c"><name>OPT354  </name><description>United States</description><open>1</open><extrude>0</extrude><LookAt><longitude>-94.2513</longitude><latitude>32.6032</latitude><range>12184.38</range></LookAt><Point><coordinates>-94.2513,32.6032,12184.38</coordinates><altitudeMode>relativeToGround</altitudeMode></Point></Placemark><Placemark id="4248db"><name>SBI992  </name><description>United Kingdom</description><open>1</open><extrude>0</extrude><LookAt><longitude>23.825</longitude><latitude>55.0102</latitude><range>11315.7</range></LookAt><Point><coordinates>23.825,55.0102,11315.7</coordinates><altitudeMode>relativeToGround</altitudeMode></Point></Placemark><Placemark id="a26a70"><name>N255DV  </name><description>United States</description><open>1</open><extrude>0</extrude><LookAt><longitude>-85.5682</longitude><latitude>42.8736</latitude><range>381</range></LookAt><Point><coordinates>-85.5682,42.8736,381</coordinates><altitudeMode>relativeToGround</altitudeMode></Point></Placemark><Placemark id="aa3d2a"><name/><description>United States</description><open>1</open><extrude>0</extrude><LookAt><longitude>null</longitude><latitude>null</latitude><range>null</range></LookAt><Point><coordinates>null,null,null</coordinates><altitudeMode>relativeToGround</altitudeMode></Point></Placemark><Placemark id="a2c125"><name>N277GT  </name><description>United States</description><open>1</open><extrude>0</extrude><LookAt><longitude>-87.6841</longitude><latitude>44.4077</latitude><range>1546.86</range></LookAt><Point><coordinates>-87.6841,44.4077,1546.86</coordinates><altitudeMode>relativeToGround</altitudeMode></Point></Placemark><Placemark id="343194"><name>VLG21QR </name><description>Spain</description><open>1</open><extrude>0</extrude><LookAt><longitude>-3.3921</longitude><latitude>38.6439</latitude><range>11795.76</range></LookAt><Point><coordinates>-3.3921,38.6439,11795.76</coordinates><altitudeMode>relativeToGround</altitudeMode></Point></Placemark><Placemark id="ac972b"><name>N910FC  </name><description>United States</description><open>1</open><extrude>0</extrude><LookAt><longitude>-122.3423</longitude><latitude>38.0716</latitude><range>4511.04</range></LookAt><Point><coordinates>-122.3423,38.0716,4511.04</coordinates><altitudeMode>relativeToGround</altitudeMode></Point></Placemark><Placemark id="ad071e"><name/><description>United States</description><open>1</open><extrude>0</extrude><LookAt><longitude>-78.6056</longitude><latitude>35.6497</latitude><range>1028.7</range></LookAt><Point><coordinates>-78.6056,35.6497,1028.7</coordinates><altitudeMode>relativeToGround</altitudeMode></Point></Placemark><Placemark id="ab5d2c"><name>DAL117  </name><description>United States</description><open>1</open><extrude>0</extrude><LookAt><longitude>-75.2083</longitude><latitude>40.456</latitude><range>10881.36</range></LookAt><Point><coordinates>-75.2083,40.456,10881.36</coordinates><altitudeMode>relativeToGround</altitudeMode></Point></Placemark><Placemark id="a1c78a"><name>N21339  </name><description>United States</description><open>1</open><extrude>0</extrude><LookAt><longitude>-112.6928</longitude><latitude>33.4898</latitude><range>1699.26</range></LookAt><Point><coordinates>-112.6928,33.4898,1699.26</coordinates><altitudeMode>relativeToGround</altitudeMode></Point></Placemark><Placemark id="4a09b0"><name>BMS9JP  </name><description>Romania</description><open>1</open><extrude>0</extrude><LookAt><longitude>16.7943</longitude><latitude>49.8862</latitude><range>11849.1</range></LookAt><Point><coordinates>16.7943,49.8862,11849.1</coordinates><altitudeMode>relativeToGround</altitudeMode></Point></Placemark><Placemark id="c0481b"><name>ROU1765 </name><description>Canada</description><open>1</open><extrude>0</extrude><LookAt><longitude>-81.3203</longitude><latitude>28.4301</latitude><range>11300.46</range></LookAt><Point><coordinates>-81.3203,28.4301,11300.46</coordinates><altitudeMode>relativeToGround</altitudeMode></Point></Placemark><Placemark id="a487ef"><name>EJA391  </name><description>United States</description><open>1</open><extrude>0</extrude><LookAt><longitude>-77.9107</longitude><latitude>35.8883</latitude><range>9608.82</range></LookAt><Point><coordinates>-77.9107,35.8883,9608.82</coordinates><altitudeMode>relativeToGround</altitudeMode></Point></Placemark><Placemark id="a34def"><name>LYM602  </name><description>United States</description><open>1</open><extrude>0</extrude><LookAt><longitude>-105.9138</longitude><latitude>38.5004</latitude><range>3390.9</range></LookAt><Point><coordinates>-105.9138,38.5004,3390.9</coordinates><altitudeMode>relativeToGround</altitudeMode></Point></Placemark><Placemark id="c0481c"><name>ROU1503 </name><description>Canada</description><open>1</open><extrude>0</extrude><LookAt><longitude>-75.7194</longitude><latitude>45.3317</latitude><range>10119.36</range></LookAt><Point><coordinates>-75.7194,45.3317,10119.36</coordinates><altitudeMode>relativeToGround</altitudeMode></Point></Placemark><Placemark id="4a09ad"><name>BMS192  </name><description>Romania</description><open>1</open><extrude>0</extrude><LookAt><longitude>13.1337</longitude><latitude>43.1341</latitude><range>12062.46</range></LookAt><Point><coordinates>13.1337,43.1341,12062.46</coordinates><altitudeMode>relativeToGround</altitudeMode></Point></Placemark><Placemark id="ad0725"><name>AAL690  </name><description>United States</description><open>1</open><extrude>0</extrude><LookAt><longitude>-105.1652</longitude><latitude>35.5334</latitude><range>11536.68</range></LookAt><Point><coordinates>-105.1652,35.5334,11536.68</coordinates><altitudeMode>relativeToGround</altitudeMode></Point></Placemark><Placemark id="4a09ae"><name>BMS3LA  </name><description>Romania</description><open>1</open><extrude>0</extrude><LookAt><longitude>31.2447</longitude><latitude>35.274</latitude><range>11300.46</range></LookAt><Point><coordinates>31.2447,35.274,11300.46</coordinates><altitudeMode>relativeToGround</altitudeMode></Point></Placemark><Placemark id="ad67a1"><name>DAL2074 </name><description>United States</description><open>1</open><extrude>0</extrude><LookAt><longitude>-76.14</longitude><latitude>36.964</latitude><range>876.3</range></LookAt><Point><coordinates>-76.14,36.964,876.3</coordinates><altitudeMode>relativeToGround</altitudeMode></Point></Placemark><Placemark id="4248ef"><name>AFL2146 </name><description>United Kingdom</description><open>1</open><extrude>0</extrude><LookAt><longitude>32.387</longitude><latitude>38.5126</latitude><range>9959.34</range></LookAt><Point><coordinates>32.387,38.5126,9959.34</coordinates><altitudeMode>relativeToGround</altitudeMode></Point></Placemark><Placemark id="ad67a3"><name>DAL1696 </name><description>United States</description><open>1</open><extrude>0</extrude><LookAt><longitude>-73.9616</longitude><latitude>41.3131</latitude><range>8267.7</range></LookAt><Point><coordinates>-73.9616,41.3131,8267.7</coordinates><altitudeMode>relativeToGround</altitudeMode></Point></Placemark><Placemark id="4a09ab"><name>BMS2LQ  </name><description>Romania</description><open>1</open><extrude>0</extrude><LookAt><longitude>3.0638</longitude><latitude>49.5196</latitude><range>2567.94</range></LookAt><Point><coordinates>3.0638,49.5196,2567.94</coordinates><altitudeMode>relativeToGround</altitudeMode></Point></Placemark><Placemark id="4a09aa"><name>BMS1KA  </name><description>Romania</description><open>1</open><extrude>0</extrude><LookAt><longitude>31.848</longitude><latitude>34.9513</latitude><range>null</range></LookAt><Point><coordinates>31.848,34.9513,null</coordinates><altitudeMode>relativeToGround</altitudeMode></Point></Placemark><Placemark id="a0dae2"><name>AAL846  </name><description>United States</description><open>1</open><extrude>0</extrude><LookAt><longitude>-115.601</longitude><latitude>34.1826</latitude><range>10218.42</range></LookAt><Point><coordinates>-115.601,34.1826,10218.42</coordinates><altitudeMode>relativeToGround</altitudeMode></Point></Placemark><Placemark id="a4c4e1"><name>N406WB  </name><description>United States</description><open>1</open><extrude>0</extrude><LookAt><longitude>-72.6735</longitude><latitude>41.0141</latitude><range>1074.42</range></LookAt><Point><coordinates>-72.6735,41.0141,1074.42</coordinates><altitudeMode>relativeToGround</altitudeMode></Point></Placemark><Placemark id="a6a425"><name>NKS781  </name><description>United States</description><open>1</open><extrude>0</extrude><LookAt><longitude>-78.0305</longitude><latitude>35.1642</latitude><range>10957.56</range></LookAt><Point><coordinates>-78.0305,35.1642,10957.56</coordinates><altitudeMode>relativeToGround</altitudeMode></Point></Placemark><Placemark id="a57ad0"><name>PAC963  </name><description>United States</description><open>1</open><extrude>0</extrude><LookAt><longitude>126.5597</longitude><latitude>37.3494</latitude><range>null</range></LookAt><Point><coordinates>126.5597,37.3494,null</coordinates><altitudeMode>relativeToGround</altitudeMode></Point></Placemark><Placemark id="accd13"><name>AAL1611 </name><description>United States</description><open>1</open><extrude>0</extrude><LookAt><longitude>-114.65</longitude><latitude>32.8599</latitude><range>10355.58</range></LookAt><Point><coordinates>-114.65,32.8599,10355.58</coordinates><altitudeMode>relativeToGround</altitudeMode></Point></Placemark><Placemark id="c04864"><name>CGBKT   </name><description>Canada</description><open>1</open><extrude>0</extrude><LookAt><longitude>-79.3352</longitude><latitude>42.4948</latitude><range>6659.88</range></LookAt><Point><coordinates>-79.3352,42.4948,6659.88</coordinates><altitudeMode>relativeToGround</altitudeMode></Point></Placemark><Placemark id="393322"><name>AFR82QL </name><description>France</description><open>1</open><extrude>0</extrude><LookAt><longitude>4.0088</longitude><latitude>47.3725</latitude><range>10736.58</range></LookAt><Point><coordinates>4.0088,47.3725,10736.58</coordinates><altitudeMode>relativeToGround</altitudeMode></Point></Placemark><Placemark id="c02201"><name>ROU1595 </name><description>Canada</description><open>1</open><extrude>0</extrude><LookAt><longitude>-85.5675</longitude><latitude>45.3774</latitude><range>11422.38</range></LookAt><Point><coordinates>-85.5675,45.3774,11422.38</coordinates><altitudeMode>relativeToGround</altitudeMode></Point></Placemark><Placemark id="a6b755"><name>N5316G  </name><description>United States</description><open>1</open><extrude>0</extrude><LookAt><longitude>-116.8513</longitude><latitude>33.9366</latitude><range>998.22</range></LookAt><Point><coordinates>-116.8513,33.9366,998.22</coordinates><altitudeMode>relativeToGround</altitudeMode></Point></Placemark><Placemark id="ab5d52"><name>DAL165  </name><description>United States</description><open>1</open><extrude>0</extrude><LookAt><longitude>-5.1417</longitude><latitude>53.6684</latitude><range>10721.34</range></LookAt><Point><coordinates>-5.1417,53.6684,10721.34</coordinates><altitudeMode>relativeToGround</altitudeMode></Point></Placemark><Placemark id="393324"><name>AFR97UA </name><description>France</description><open>1</open><extrude>0</extrude><LookAt><longitude>1.1052</longitude><latitude>46.8214</latitude><range>10073.64</range></LookAt><Point><coordinates>1.1052,46.8214,10073.64</coordinates><altitudeMode>relativeToGround</altitudeMode></Point></Placemark><Placemark id="a64d4d"><name>JBU1142 </name><description>United States</description><open>1</open><extrude>0</extrude><LookAt><longitude>-78.2516</longitude><latitude>35.2791</latitude><range>11247.12</range></LookAt><Point><coordinates>-78.2516,35.2791,11247.12</coordinates><altitudeMode>relativeToGround</altitudeMode></Point></Placemark><Placemark id="accd18"><name>DAL784  </name><description>United States</description><open>1</open><extrude>0</extrude><LookAt><longitude>-96.5509</longitude><latitude>27.4601</latitude><range>10347.96</range></LookAt><Point><coordinates>-96.5509,27.4601,10347.96</coordinates><altitudeMode>relativeToGround</altitudeMode></Point></Placemark><Placemark id="4488da"><name/><description>Belgium</description><open>1</open><extrude>0</extrude><LookAt><longitude>3.9405</longitude><latitude>50.9705</latitude><range>266.7</range></LookAt><Point><coordinates>3.9405,50.9705,266.7</coordinates><altitudeMode>relativeToGround</altitudeMode></Point></Placemark><Placemark id="a091f3"><name>EDV3295 </name><description>United States</description><open>1</open><extrude>0</extrude><LookAt><longitude>-80.2449</longitude><latitude>35.6052</latitude><range>6423.66</range></LookAt><Point><coordinates>-80.2449,35.6052,6423.66</coordinates><altitudeMode>relativeToGround</altitudeMode></Point></Placemark><Placemark id="5110e8"><name>SAS1218 </name><description>Estonia</description><open>1</open><extrude>0</extrude><LookAt><longitude>12.6634</longitude><latitude>55.6276</latitude><range>null</range></LookAt><Point><coordinates>12.6634,55.6276,null</coordinates><altitudeMode>relativeToGround</altitudeMode></Point></Placemark><Placemark id="e07581"><name>ARG1534 </name><description>Argentina</description><open>1</open><extrude>0</extrude><LookAt><longitude>-64.2236</longitude><latitude>-33.9695</latitude><range>11719.56</range></LookAt><Point><coordinates>-64.2236,-33.9695,11719.56</coordinates><altitudeMode>relativeToGround</altitudeMode></Point></Placemark><Placemark id="5110e9"><name>SAS52A  </name><description>Estonia</description><open>1</open><extrude>0</extrude><LookAt><longitude>10.8751</longitude><latitude>54.0547</latitude><range>4457.7</range></LookAt><Point><coordinates>10.8751,54.0547,4457.7</coordinates><altitudeMode>relativeToGround</altitudeMode></Point></Placemark><Placemark id="00b1f9"><name>SAA209  </name><description>South Africa</description><open>1</open><extrude>0</extrude><LookAt><longitude>null</longitude><latitude>null</latitude><range>null</range></LookAt><Point><coordinates>null,null,null</coordinates><altitudeMode>relativeToGround</altitudeMode></Point></Placemark><Placemark id="ab14d9"><name>DAL1270 </name><description>United States</description><open>1</open><extrude>0</extrude><LookAt><longitude>-116.4371</longitude><latitude>46.0577</latitude><range>10210.8</range></LookAt><Point><coordinates>-116.4371,46.0577,10210.8</coordinates><altitudeMode>relativeToGround</altitudeMode></Point></Placemark>